{
  "location_id": "montreal",
  "postal_code": "H3A1A1",
  "radius_km": 12.0,
  "source": "osm_overpass",
  "provider": "https://overpass-api.de",
  "attribution": "OpenStreetMap contributors",
  "license": "ODbL 1.0",
  "license_url": "https://www.openstreetmap.org/copyright",
  "captured_at_utc": "2026-07-18T17:44:22.629635Z",
  "stores": [
    {
      "store_id": "scan-66381d8c8486",
      "name": "Avril Supermarch\u00e9 Sant\u00e9",
      "chain": "Avril Supermarch\u00e9 Sant\u00e9",
      "address": "375 Avenue Viger Ouest, Montr\u00e9al",
      "distance_km": 0.44,
      "price_tier": "mid",
      "quality_rating": 3.6,
      "location_id": "auto-discovered",
      "latitude": 45.503439,
      "longitude": -73.562247,
      "tags": {
        "shop": "supermarket",
        "amenity": "",
        "brand": ""
      }
    },
    {
      "store_id": "scan-d8a9b71cc201",
      "name": "FOU D'ICi",
      "chain": "FOU D'ICi",
      "address": "Address unavailable",
      "distance_km": 0.59,
      "price_tier": "mid",
      "quality_rating": 3.6,
      "location_id": "auto-discovered",
      "latitude": 45.506912,
      "longitude": -73.568886,
      "tags": {
        "shop": "supermarket",
        "amenity": "",
        "brand": ""
      }
    },
    {
      "store_id": "scan-d75b460a21b3",
      "name": "Provigo",
      "chain": "Provigo",
      "address": "1275 Avenue des Canadiens-de-Montr\u00e9al, Montr\u00e9al",
      "distance_km": 0.62,
      "price_tier": "mid",
      "quality_rating": 3.8,
      "location_id": "auto-discovered",
      "latitude": 45.496519,
      "longitude": -73.570333,
      "tags": {
        "shop": "supermarket",
        "amenity": "",
        "brand": "Provigo"
      }
    },
    {
      "store_id": "scan-3a6802028acc",
      "name": "Couche Tarde",
      "chain": "Couche Tarde",
      "address": "1001 Rue Sherbrooke Ouest, Montr\u00e9al",
      "distance_km": 0.7,
      "price_tier": "mid",
      "quality_rating": 3.6,
      "location_id": "auto-discovered",
      "latitude": 45.502644,
      "longitude": -73.576194,
      "tags": {
        "shop": "supermarket",
        "amenity": "",
        "brand": ""
      }
    },
    {
      "store_id": "scan-007ed858cf28",
      "name": "IGA",
      "chain": "IGA",
      "address": "Address unavailable",
      "distance_km": 0.73,
      "price_tier": "mid",
      "quality_rating": 3.8,
      "location_id": "auto-discovered",
      "latitude": 45.507658,
      "longitude": -73.563277,
      "tags": {
        "shop": "supermarket",
        "amenity": "",
        "brand": "IGA"
      }
    },
    {
      "store_id": "scan-2860bcef3d9f",
      "name": "Fosetter",
      "chain": "Fosetter",
      "address": "Address unavailable",
      "distance_km": 0.8,
      "price_tier": "mid",
      "quality_rating": 3.5,
      "location_id": "auto-discovered",
      "latitude": 45.507167,
      "longitude": -73.560563,
      "tags": {
        "shop": "health_food",
        "amenity": "",
        "brand": ""
      }
    },
    {
      "store_id": "scan-1d852b600d05",
      "name": "IGA",
      "chain": "IGA",
      "address": "Address unavailable",
      "distance_km": 0.84,
      "price_tier": "mid",
      "quality_rating": 3.8,
      "location_id": "auto-discovered",
      "latitude": 45.497445,
      "longitude": -73.558396,
      "tags": {
        "shop": "supermarket",
        "amenity": "",
        "brand": "IGA"
      }
    },
    {
      "store_id": "scan-9a58f23486bb",
      "name": "Provigo",
      "chain": "Provigo",
      "address": "Address unavailable",
      "distance_km": 0.87,
      "price_tier": "mid",
      "quality_rating": 3.8,
      "location_id": "auto-discovered",
      "latitude": 45.508814,
      "longitude": -73.571797,
      "tags": {
        "shop": "supermarket",
        "amenity": "",
        "brand": "Provigo"
      }
    },
    {
      "store_id": "scan-0b1f7bc88a5c",
      "name": "March\u00e9 G&D",
      "chain": "March\u00e9 G&D",
      "address": "1006 Boulevard Saint-Laurent",
      "distance_km": 0.9,
      "price_tier": "mid",
      "quality_rating": 3.6,
      "location_id": "auto-discovered",
      "latitude": 45.507775,
      "longitude": -73.559629,
      "tags": {
        "shop": "supermarket",
        "amenity": "",
        "brand": ""
      }
    },
    {
      "store_id": "scan-b5b762ba7418",
      "name": "Shun Lee Alimentation & Th\u00e9",
      "chain": "Shun Lee Alimentation & Th\u00e9",
      "address": "1106 Boulevard Saint-Laurent",
      "distance_km": 0.9,
      "price_tier": "mid",
      "quality_rating": 3.5,
      "location_id": "auto-discovered",
      "latitude": 45.508548,
      "longitude": -73.561235,
      "tags": {
        "shop": "health_food",
        "amenity": "",
        "brand": ""
      }
    },
    {
      "store_id": "scan-6b8a913995eb",
      "name": "\u00c9picerie Kien Vinh",
      "chain": "\u00c9picerie Kien Vinh",
      "address": "1062 Boulevard Saint-Laurent",
      "distance_km": 0.9,
      "price_tier": "mid",
      "quality_rating": 3.5,
      "location_id": "auto-discovered",
      "latitude": 45.50815,
      "longitude": -73.560365,
      "tags": {
        "shop": "grocery",
        "amenity": "",
        "brand": ""
      }
    },
    {
      "store_id": "scan-60e8ddb61da8",
      "name": "\u00c9picerie Heng Heng Chanchaya",
      "chain": "\u00c9picerie Heng Heng Chanchaya",
      "address": "1071 Boulevard Saint-Laurent, Montr\u00e9al",
      "distance_km": 0.92,
      "price_tier": "mid",
      "quality_rating": 3.5,
      "location_id": "auto-discovered",
      "latitude": 45.508439,
      "longitude": -73.560476,
      "tags": {
        "shop": "grocery",
        "amenity": "",
        "brand": ""
      }
    },
    {
      "store_id": "scan-79d232f02a92",
      "name": "Maxi",
      "chain": "Maxi",
      "address": "Address unavailable",
      "distance_km": 0.96,
      "price_tier": "budget",
      "quality_rating": 3.6,
      "location_id": "auto-discovered",
      "latitude": 45.496911,
      "longitude": -73.556997,
      "tags": {
        "shop": "supermarket",
        "amenity": "",
        "brand": ""
      }
    },
    {
      "store_id": "scan-cb74d395f102",
      "name": "Metro Plus de la Montagne",
      "chain": "Metro",
      "address": "1230 Rue Notre-Dame Ouest, Montr\u00e9al",
      "distance_km": 0.98,
      "price_tier": "mid",
      "quality_rating": 3.8,
      "location_id": "auto-discovered",
      "latitude": 45.493115,
      "longitude": -73.564452,
      "tags": {
        "shop": "supermarket",
        "amenity": "",
        "brand": "Metro"
      }
    },
    {
      "store_id": "scan-0eb9e1216738",
      "name": "Nuvo Express",
      "chain": "Nuvo Express",
      "address": "1446 Boulevard Saint-Laurent",
      "distance_km": 0.98,
      "price_tier": "mid",
      "quality_rating": 3.5,
      "location_id": "auto-discovered",
      "latitude": 45.51037,
      "longitude": -73.565116,
      "tags": {
        "shop": "supermarket",
        "amenity": "",
        "brand": ""
      }
    },
    {
      "store_id": "scan-e0e010f02474",
      "name": "Maxi",
      "chain": "Maxi",
      "address": "1470 Boulevard Ren\u00e9-L\u00e9vesque Ouest, Montr\u00e9al",
      "distance_km": 0.99,
      "price_tier": "budget",
      "quality_rating": 3.8,
      "location_id": "auto-discovered",
      "latitude": 45.494229,
      "longitude": -73.574292,
      "tags": {
        "shop": "supermarket",
        "amenity": "",
        "brand": "Maxi"
      }
    },
    {
      "store_id": "scan-c8dbce5f9d02",
      "name": "Le frigo vert",
      "chain": "Le frigo vert",
      "address": "1440 Rue Mackay, Montr\u00e9al",
      "distance_km": 1.04,
      "price_tier": "mid",
      "quality_rating": 3.6,
      "location_id": "auto-discovered",
      "latitude": 45.496217,
      "longitude": -73.578152,
      "tags": {
        "shop": "supermarket",
        "amenity": "",
        "brand": ""
      }
    },
    {
      "store_id": "scan-1701cc45bc61",
      "name": "March\u00e9 Adonis",
      "chain": "March\u00e9 Adonis",
      "address": "225 Rue Peel, Montr\u00e9al",
      "distance_km": 1.06,
      "price_tier": "mid",
      "quality_rating": 3.8,
      "location_id": "auto-discovered",
      "latitude": 45.494144,
      "longitude": -73.558907,
      "tags": {
        "shop": "supermarket",
        "amenity": "",
        "brand": "March\u00e9 Adonis"
      }
    },
    {
      "store_id": "scan-9f0730e5c595",
      "name": "Avril",
      "chain": "Avril",
      "address": "1100 Rue Ottawa, Montr\u00e9al",
      "distance_km": 1.07,
      "price_tier": "mid",
      "quality_rating": 3.6,
      "location_id": "auto-discovered",
      "latitude": 45.493832,
      "longitude": -73.559305,
      "tags": {
        "shop": "health_food",
        "amenity": "",
        "brand": ""
      }
    },
    {
      "store_id": "scan-71576e0d00b6",
      "name": "Allons Vert",
      "chain": "Allons Vert",
      "address": "319 Rue de la Montagne, Montr\u00e9al",
      "distance_km": 1.1,
      "price_tier": "mid",
      "quality_rating": 3.6,
      "location_id": "auto-discovered",
      "latitude": 45.492343,
      "longitude": -73.562726,
      "tags": {
        "shop": "supermarket",
        "amenity": "",
        "brand": ""
      }
    },
    {
      "store_id": "scan-52e7d0d31436",
      "name": "Super March\u00e9 New Madina",
      "chain": "Super March\u00e9 New Madina",
      "address": "17 Rue Ontario Est",
      "distance_km": 1.11,
      "price_tier": "mid",
      "quality_rating": 3.6,
      "location_id": "auto-discovered",
      "latitude": 45.51168,
      "longitude": -73.566767,
      "tags": {
        "shop": "grocery",
        "amenity": "",
        "brand": ""
      }
    },
    {
      "store_id": "scan-1a02438317bd",
      "name": "March\u00e9 Eden",
      "chain": "March\u00e9 Eden",
      "address": "Address unavailable",
      "distance_km": 1.11,
      "price_tier": "mid",
      "quality_rating": 3.6,
      "location_id": "auto-discovered",
      "latitude": 45.510189,
      "longitude": -73.574704,
      "tags": {
        "shop": "supermarket",
        "amenity": "",
        "brand": ""
      }
    },
    {
      "store_id": "scan-9ec146a2c82f",
      "name": "Metro",
      "chain": "Metro",
      "address": "Montr\u00e9al",
      "distance_km": 1.14,
      "price_tier": "mid",
      "quality_rating": 3.8,
      "location_id": "auto-discovered",
      "latitude": 45.510411,
      "longitude": -73.574997,
      "tags": {
        "shop": "supermarket",
        "amenity": "",
        "brand": "Metro"
      }
    },
    {
      "store_id": "scan-fc77f48dd068",
      "name": "Bulk Barn",
      "chain": "Bulk Barn",
      "address": "Address unavailable",
      "distance_km": 1.18,
      "price_tier": "mid",
      "quality_rating": 3.8,
      "location_id": "auto-discovered",
      "latitude": 45.494415,
      "longitude": -73.578283,
      "tags": {
        "shop": "supermarket",
        "amenity": "",
        "brand": "Bulk Barn"
      }
    },
    {
      "store_id": "scan-430542a1fe18",
      "name": "March\u00e9 Newon (Downtown)",
      "chain": "March\u00e9 Newon (Downtown)",
      "address": "Address unavailable",
      "distance_km": 1.21,
      "price_tier": "mid",
      "quality_rating": 3.6,
      "location_id": "auto-discovered",
      "latitude": 45.494122,
      "longitude": -73.578386,
      "tags": {
        "shop": "supermarket",
        "amenity": "",
        "brand": ""
      }
    },
    {
      "store_id": "scan-97829858a014",
      "name": "March\u00e9 Boni-Soir",
      "chain": "March\u00e9 Boni-Soir",
      "address": "Address unavailable",
      "distance_km": 1.32,
      "price_tier": "mid",
      "quality_rating": 3.6,
      "location_id": "auto-discovered",
      "latitude": 45.494659,
      "longitude": -73.580962,
      "tags": {
        "shop": "grocery",
        "amenity": "",
        "brand": ""
      }
    },
    {
      "store_id": "scan-6dd4e8a1ce82",
      "name": "Le D\u00e9panneur",
      "chain": "Le D\u00e9panneur",
      "address": "Address unavailable",
      "distance_km": 1.44,
      "price_tier": "mid",
      "quality_rating": 3.5,
      "location_id": "auto-discovered",
      "latitude": 45.509825,
      "longitude": -73.552964,
      "tags": {
        "shop": "grocery",
        "amenity": "",
        "brand": ""
      }
    },
    {
      "store_id": "scan-65e40567bf26",
      "name": "Le Richmond - March\u00e9 italien",
      "chain": "Le Richmond - March\u00e9 italien",
      "address": "333 Rue Richmond, Montr\u00e9al",
      "distance_km": 1.47,
      "price_tier": "mid",
      "quality_rating": 3.6,
      "location_id": "auto-discovered",
      "latitude": 45.488485,
      "longitude": -73.56611,
      "tags": {
        "shop": "supermarket",
        "amenity": "",
        "brand": ""
      }
    },
    {
      "store_id": "scan-fc24f3c5929c",
      "name": "Kametsuru - \u00c9picerie Japonaise",
      "chain": "Kametsuru - \u00c9picerie Japonaise",
      "address": "Address unavailable",
      "distance_km": 1.47,
      "price_tier": "mid",
      "quality_rating": 3.6,
      "location_id": "auto-discovered",
      "latitude": 45.492595,
      "longitude": -73.580912,
      "tags": {
        "shop": "supermarket",
        "amenity": "",
        "brand": ""
      }
    },
    {
      "store_id": "scan-468a924300ee",
      "name": "Shengtang supermarch\u00e9",
      "chain": "Shengtang supermarch\u00e9",
      "address": "Address unavailable",
      "distance_km": 1.55,
      "price_tier": "mid",
      "quality_rating": 3.5,
      "location_id": "auto-discovered",
      "latitude": 45.492288,
      "longitude": -73.581953,
      "tags": {
        "shop": "supermarket",
        "amenity": "",
        "brand": ""
      }
    },
    {
      "store_id": "scan-054037b4bb15",
      "name": "La Main - March\u00e9s Tradition",
      "chain": "La Main - March\u00e9s Tradition",
      "address": "3695 Boulevard Saint-Laurent, Montr\u00e9al",
      "distance_km": 1.56,
      "price_tier": "mid",
      "quality_rating": 3.5,
      "location_id": "auto-discovered",
      "latitude": 45.514905,
      "longitude": -73.574225,
      "tags": {
        "shop": "supermarket",
        "amenity": "",
        "brand": ""
      }
    },
    {
      "store_id": "scan-01da5b3ca8aa",
      "name": "PA Supermarch\u00e9",
      "chain": "PA Supermarch\u00e9",
      "address": "1420 Rue du Fort, Montr\u00e9al",
      "distance_km": 1.57,
      "price_tier": "mid",
      "quality_rating": 3.6,
      "location_id": "auto-discovered",
      "latitude": 45.492147,
      "longitude": -73.582181,
      "tags": {
        "shop": "supermarket",
        "amenity": "",
        "brand": ""
      }
    },
    {
      "store_id": "scan-af33731605c1",
      "name": "Bonjour supermarch\u00e9",
      "chain": "Bonjour supermarch\u00e9",
      "address": "Address unavailable",
      "distance_km": 1.62,
      "price_tier": "mid",
      "quality_rating": 3.6,
      "location_id": "auto-discovered",
      "latitude": 45.492218,
      "longitude": -73.58304,
      "tags": {
        "shop": "supermarket",
        "amenity": "",
        "brand": ""
      }
    },
    {
      "store_id": "scan-9a084dae29e2",
      "name": "H March\u00e9",
      "chain": "H March\u00e9",
      "address": "2109 Rue Sainte-Catherine Ouest, Montr\u00e9al",
      "distance_km": 1.66,
      "price_tier": "mid",
      "quality_rating": 3.6,
      "location_id": "auto-discovered",
      "latitude": 45.491335,
      "longitude": -73.582633,
      "tags": {
        "shop": "supermarket",
        "amenity": "",
        "brand": ""
      }
    },
    {
      "store_id": "scan-bd763259f0d8",
      "name": "La Vieille Europe",
      "chain": "La Vieille Europe",
      "address": "3855 Boulevard Saint-Laurent, Montr\u00e9al",
      "distance_km": 1.75,
      "price_tier": "mid",
      "quality_rating": 3.6,
      "location_id": "auto-discovered",
      "latitude": 45.515945,
      "longitude": -73.576797,
      "tags": {
        "shop": "supermarket",
        "amenity": "",
        "brand": ""
      }
    },
    {
      "store_id": "scan-4fa70633fc54",
      "name": "IGA MARCH\u00c9 VERREAULT ET NORMANDEAU",
      "chain": "IGA",
      "address": "865 Rue Sainte-Catherine Est",
      "distance_km": 1.75,
      "price_tier": "mid",
      "quality_rating": 3.8,
      "location_id": "auto-discovered",
      "latitude": 45.51623,
      "longitude": -73.558614,
      "tags": {
        "shop": "supermarket",
        "amenity": "",
        "brand": "IGA"
      }
    },
    {
      "store_id": "scan-e308cfc2caae",
      "name": "March\u00e9 Adonis",
      "chain": "March\u00e9 Adonis",
      "address": "2173 Rue Sainte-Catherine Ouest, Montr\u00e9al",
      "distance_km": 1.77,
      "price_tier": "mid",
      "quality_rating": 3.8,
      "location_id": "auto-discovered",
      "latitude": 45.490462,
      "longitude": -73.58347,
      "tags": {
        "shop": "supermarket",
        "amenity": "",
        "brand": "March\u00e9 Adonis"
      }
    },
    {
      "store_id": "scan-e451cabf7246",
      "name": "Segal's Market",
      "chain": "Segal's Market",
      "address": "4001 Boulevard Saint-Laurent, Montr\u00e9al",
      "distance_km": 1.91,
      "price_tier": "mid",
      "quality_rating": 3.8,
      "location_id": "auto-discovered",
      "latitude": 45.516865,
      "longitude": -73.578896,
      "tags": {
        "shop": "supermarket",
        "amenity": "",
        "brand": ""
      }
    },
    {
      "store_id": "scan-021800c162c8",
      "name": "Frenco",
      "chain": "Frenco",
      "address": "4072 Boulevard Saint-Laurent",
      "distance_km": 1.99,
      "price_tier": "mid",
      "quality_rating": 3.8,
      "location_id": "auto-discovered",
      "latitude": 45.517151,
      "longitude": -73.580136,
      "tags": {
        "shop": "health_food",
        "amenity": "",
        "brand": ""
      }
    },
    {
      "store_id": "scan-b9fa0008efc0",
      "name": "Rachelle Berry",
      "chain": "Rachelle Berry",
      "address": "1150 Rue Sainte-Catherine Est, Montr\u00e9al",
      "distance_km": 2.0,
      "price_tier": "mid",
      "quality_rating": 3.6,
      "location_id": "auto-discovered",
      "latitude": 45.517974,
      "longitude": -73.556384,
      "tags": {
        "shop": "supermarket",
        "amenity": "",
        "brand": ""
      }
    },
    {
      "store_id": "scan-87a648c4931e",
      "name": "Soares et Fils",
      "chain": "Soares et Fils",
      "address": "130 Avenue Duluth Est, Montr\u00e9al",
      "distance_km": 2.02,
      "price_tier": "mid",
      "quality_rating": 3.6,
      "location_id": "auto-discovered",
      "latitude": 45.518195,
      "longitude": -73.578111,
      "tags": {
        "shop": "grocery",
        "amenity": "",
        "brand": ""
      }
    },
    {
      "store_id": "scan-b2ff8e4b22b5",
      "name": "IGA Atwater",
      "chain": "IGA",
      "address": "1500 Rue Atwater, Montreal",
      "distance_km": 2.02,
      "price_tier": "mid",
      "quality_rating": 3.8,
      "location_id": "auto-discovered",
      "latitude": 45.489267,
      "longitude": -73.586156,
      "tags": {
        "shop": "supermarket",
        "amenity": "",
        "brand": "IGA"
      }
    },
    {
      "store_id": "scan-1fccbe30a426",
      "name": "Fruiterie du petit St-Jacques",
      "chain": "Fruiterie du petit St-Jacques",
      "address": "1907 Rue Atateken",
      "distance_km": 2.09,
      "price_tier": "mid",
      "quality_rating": 3.6,
      "location_id": "auto-discovered",
      "latitude": 45.520167,
      "longitude": -73.562663,
      "tags": {
        "shop": "greengrocer",
        "amenity": "",
        "brand": ""
      }
    },
    {
      "store_id": "scan-afc6ba0cb41a",
      "name": "Costco",
      "chain": "Costco",
      "address": "300 Rue Bridge, Montr\u00e9al",
      "distance_km": 2.09,
      "price_tier": "mid",
      "quality_rating": 3.8,
      "location_id": "auto-discovered",
      "latitude": 45.48596,
      "longitude": -73.552704,
      "tags": {
        "shop": "wholesale",
        "amenity": "",
        "brand": "Costco"
      }
    },
    {
      "store_id": "scan-2f881b03ee5f",
      "name": "Super C",
      "chain": "Super C",
      "address": "2035 Rue Atateken, Montr\u00e9al",
      "distance_km": 2.13,
      "price_tier": "budget",
      "quality_rating": 3.8,
      "location_id": "auto-discovered",
      "latitude": 45.52063,
      "longitude": -73.56347,
      "tags": {
        "shop": "supermarket",
        "amenity": "",
        "brand": "Super C"
      }
    },
    {
      "store_id": "scan-da9d4bf007d0",
      "name": "Gourmet Frutti",
      "chain": "Gourmet Frutti",
      "address": "1251 Boulevard de Maisonneuve Est, Montr\u00e9al",
      "distance_km": 2.14,
      "price_tier": "premium",
      "quality_rating": 3.8,
      "location_id": "auto-discovered",
      "latitude": 45.519618,
      "longitude": -73.557368,
      "tags": {
        "shop": "greengrocer",
        "amenity": "",
        "brand": ""
      }
    },
    {
      "store_id": "scan-2ff1367da187",
      "name": "March\u00e9 Richelieu",
      "chain": "March\u00e9 Richelieu",
      "address": "Address unavailable",
      "distance_km": 2.23,
      "price_tier": "mid",
      "quality_rating": 3.5,
      "location_id": "auto-discovered",
      "latitude": 45.521681,
      "longitude": -73.56997,
      "tags": {
        "shop": "supermarket",
        "amenity": "",
        "brand": ""
      }
    },
    {
      "store_id": "scan-2e0a4dbd3324",
      "name": "\u00c9picerie Vrac & Bio",
      "chain": "\u00c9picerie Vrac & Bio",
      "address": "1273 Rue Ontario Est",
      "distance_km": 2.29,
      "price_tier": "mid",
      "quality_rating": 3.6,
      "location_id": "auto-discovered",
      "latitude": 45.521976,
      "longitude": -73.562014,
      "tags": {
        "shop": "grocery",
        "amenity": "",
        "brand": ""
      }
    },
    {
      "store_id": "scan-6d91fcd8b8b4",
      "name": "March\u00e9 Bleuet",
      "chain": "March\u00e9 Bleuet",
      "address": "2733 Rue Notre-Dame Ouest, Montr\u00e9al",
      "distance_km": 2.36,
      "price_tier": "mid",
      "quality_rating": 3.8,
      "location_id": "auto-discovered",
      "latitude": 45.481681,
      "longitude": -73.577462,
      "tags": {
        "shop": "supermarket",
        "amenity": "",
        "brand": ""
      }
    },
    {
      "store_id": "scan-08e4dbad597f",
      "name": "March\u00e9 Gangnam Style",
      "chain": "March\u00e9 Gangnam Style",
      "address": "4182 Rue Saint-Denis",
      "distance_km": 2.36,
      "price_tier": "mid",
      "quality_rating": 3.6,
      "location_id": "auto-discovered",
      "latitude": 45.521527,
      "longitude": -73.577994,
      "tags": {
        "shop": "grocery",
        "amenity": "",
        "brand": ""
      }
    },
    {
      "store_id": "scan-331ad0cf1a10",
      "name": "Sabor Latino",
      "chain": "Sabor Latino",
      "address": "Boulevard Saint-Laurent",
      "distance_km": 2.4,
      "price_tier": "mid",
      "quality_rating": 3.5,
      "location_id": "auto-discovered",
      "latitude": 45.519506,
      "longitude": -73.58467,
      "tags": {
        "shop": "supermarket",
        "amenity": "",
        "brand": ""
      }
    },
    {
      "store_id": "scan-ad2763831e88",
      "name": "Rachelle Bery",
      "chain": "Rachelle Bery",
      "address": "505 Rue Rachel Est, Montr\u00e9al",
      "distance_km": 2.41,
      "price_tier": "mid",
      "quality_rating": 3.8,
      "location_id": "auto-discovered",
      "latitude": 45.521991,
      "longitude": -73.578206,
      "tags": {
        "shop": "supermarket",
        "amenity": "",
        "brand": ""
      }
    },
    {
      "store_id": "scan-4f8b9a71f0ea",
      "name": "5 Seasons",
      "chain": "5 Seasons",
      "address": "1280 Avenue Greene, Westmount",
      "distance_km": 2.41,
      "price_tier": "mid",
      "quality_rating": 3.6,
      "location_id": "auto-discovered",
      "latitude": 45.48659,
      "longitude": -73.589379,
      "tags": {
        "shop": "supermarket",
        "amenity": "",
        "brand": ""
      }
    },
    {
      "store_id": "scan-24fbfeced50e",
      "name": "Tau Aliments Naturels",
      "chain": "Tau Aliments Naturels",
      "address": "4238 Rue Saint-Denis, Montr\u00e9al",
      "distance_km": 2.42,
      "price_tier": "mid",
      "quality_rating": 3.8,
      "location_id": "auto-discovered",
      "latitude": 45.52194,
      "longitude": -73.578832,
      "tags": {
        "shop": "health_food",
        "amenity": "",
        "brand": ""
      }
    },
    {
      "store_id": "scan-18989f8fcd3b",
      "name": "Super C",
      "chain": "Super C",
      "address": "147 Avenue Atwater, Montr\u00e9al",
      "distance_km": 2.47,
      "price_tier": "budget",
      "quality_rating": 3.8,
      "location_id": "auto-discovered",
      "latitude": 45.480337,
      "longitude": -73.575995,
      "tags": {
        "shop": "supermarket",
        "amenity": "",
        "brand": "Super C"
      }
    },
    {
      "store_id": "scan-bbb8a85384d2",
      "name": "Maxi",
      "chain": "Maxi",
      "address": "50 Avenue du Mont-Royal Ouest, Montr\u00e9al",
      "distance_km": 2.47,
      "price_tier": "budget",
      "quality_rating": 3.8,
      "location_id": "auto-discovered",
      "latitude": 45.51906,
      "longitude": -73.587095,
      "tags": {
        "shop": "supermarket",
        "amenity": "",
        "brand": "Maxi"
      }
    },
    {
      "store_id": "scan-4ebac24ae946",
      "name": "\u00c9picerie Basta",
      "chain": "\u00c9picerie Basta",
      "address": "505 Rue Rachel Est",
      "distance_km": 2.49,
      "price_tier": "mid",
      "quality_rating": 3.6,
      "location_id": "auto-discovered",
      "latitude": 45.522977,
      "longitude": -73.577291,
      "tags": {
        "shop": "supermarket",
        "amenity": "",
        "brand": ""
      }
    },
    {
      "store_id": "scan-b6262af51704",
      "name": "March\u00e9 Branche d'Olivier",
      "chain": "March\u00e9 Branche d'Olivier",
      "address": "3443 Rue Notre-Dame Ouest",
      "distance_km": 2.54,
      "price_tier": "mid",
      "quality_rating": 3.8,
      "location_id": "auto-discovered",
      "latitude": 45.480516,
      "longitude": -73.579545,
      "tags": {
        "shop": "supermarket",
        "amenity": "",
        "brand": ""
      }
    },
    {
      "store_id": "scan-00bb3c5a24cd",
      "name": "March\u00e9 Atwater",
      "chain": "March\u00e9 Atwater",
      "address": "Address unavailable",
      "distance_km": 2.56,
      "price_tier": "mid",
      "quality_rating": 3.6,
      "location_id": "auto-discovered",
      "latitude": 45.479644,
      "longitude": -73.576781,
      "tags": {
        "shop": "",
        "amenity": "marketplace",
        "brand": ""
      }
    },
    {
      "store_id": "scan-c3dcf87c985f",
      "name": "Intermarch\u00e9",
      "chain": "Intermarch\u00e9",
      "address": "89 Avenue du Mont-Royal Est",
      "distance_km": 2.6,
      "price_tier": "mid",
      "quality_rating": 3.8,
      "location_id": "auto-discovered",
      "latitude": 45.521133,
      "longitude": -73.585811,
      "tags": {
        "shop": "supermarket",
        "amenity": "",
        "brand": "Intermarch\u00e9"
      }
    },
    {
      "store_id": "scan-74186a0e8a7e",
      "name": "Valmont",
      "chain": "Valmont",
      "address": "205 Avenue du Mont-Royal Est, Montr\u00e9al",
      "distance_km": 2.66,
      "price_tier": "mid",
      "quality_rating": 3.6,
      "location_id": "auto-discovered",
      "latitude": 45.52236,
      "longitude": -73.584477,
      "tags": {
        "shop": "supermarket",
        "amenity": "",
        "brand": ""
      }
    },
    {
      "store_id": "scan-14ab1aa78215",
      "name": "Maxi",
      "chain": "Maxi",
      "address": "Address unavailable",
      "distance_km": 2.66,
      "price_tier": "budget",
      "quality_rating": 3.7,
      "location_id": "auto-discovered",
      "latitude": 45.523128,
      "longitude": -73.552092,
      "tags": {
        "shop": "supermarket",
        "amenity": "",
        "brand": "Maxi"
      }
    },
    {
      "store_id": "scan-a0d94d6a2308",
      "name": "IGA",
      "chain": "IGA",
      "address": "Rue Mullins",
      "distance_km": 2.77,
      "price_tier": "mid",
      "quality_rating": 3.8,
      "location_id": "auto-discovered",
      "latitude": 45.476799,
      "longitude": -73.56723,
      "tags": {
        "shop": "supermarket",
        "amenity": "",
        "brand": "IGA"
      }
    },
    {
      "store_id": "scan-d54c895a9678",
      "name": "Metro",
      "chain": "Metro",
      "address": "1955 Rue Sainte-Catherine Est, Montr\u00e9al",
      "distance_km": 2.78,
      "price_tier": "mid",
      "quality_rating": 3.8,
      "location_id": "auto-discovered",
      "latitude": 45.524106,
      "longitude": -73.551477,
      "tags": {
        "shop": "supermarket",
        "amenity": "",
        "brand": "Metro"
      }
    },
    {
      "store_id": "scan-996dca860f08",
      "name": "Rachelle-B\u00e9ry",
      "chain": "Rachelle-B\u00e9ry",
      "address": "Address unavailable",
      "distance_km": 2.8,
      "price_tier": "mid",
      "quality_rating": 3.5,
      "location_id": "auto-discovered",
      "latitude": 45.521468,
      "longitude": -73.58966,
      "tags": {
        "shop": "supermarket",
        "amenity": "",
        "brand": ""
      }
    },
    {
      "store_id": "scan-f5ff5150d864",
      "name": "March\u00e9 D&T",
      "chain": "March\u00e9 D&T",
      "address": "1905 Rue Ontario Est, Montr\u00e9al",
      "distance_km": 2.89,
      "price_tier": "mid",
      "quality_rating": 3.5,
      "location_id": "auto-discovered",
      "latitude": 45.526934,
      "longitude": -73.558625,
      "tags": {
        "shop": "supermarket",
        "amenity": "",
        "brand": ""
      }
    },
    {
      "store_id": "scan-93ff6213148c",
      "name": "Super C",
      "chain": "Super C",
      "address": "1295 Avenue De Lorimier, Montr\u00e9al",
      "distance_km": 2.91,
      "price_tier": "budget",
      "quality_rating": 3.7,
      "location_id": "auto-discovered",
      "latitude": 45.524875,
      "longitude": -73.549995,
      "tags": {
        "shop": "supermarket",
        "amenity": "",
        "brand": "Super C"
      }
    },
    {
      "store_id": "scan-14d8976896fe",
      "name": "PA Nature Supermarch\u00e9",
      "chain": "PA Nature Supermarch\u00e9",
      "address": "5029 Avenue du Parc",
      "distance_km": 2.92,
      "price_tier": "mid",
      "quality_rating": 3.8,
      "location_id": "auto-discovered",
      "latitude": 45.519435,
      "longitude": -73.594964,
      "tags": {
        "shop": "supermarket",
        "amenity": "",
        "brand": ""
      }
    },
    {
      "store_id": "scan-58b3d874a592",
      "name": "L'Hexagone",
      "chain": "L'Hexagone",
      "address": "819 Avenue du Mont-Royal Est",
      "distance_km": 2.93,
      "price_tier": "mid",
      "quality_rating": 3.5,
      "location_id": "auto-discovered",
      "latitude": 45.526206,
      "longitude": -73.581077,
      "tags": {
        "shop": "grocery",
        "amenity": "",
        "brand": ""
      }
    },
    {
      "store_id": "scan-434fe57260ab",
      "name": "IGA",
      "chain": "IGA",
      "address": "3964 Rue Notre-Dame Ouest, Montr\u00e9al",
      "distance_km": 2.94,
      "price_tier": "mid",
      "quality_rating": 4.0,
      "location_id": "auto-discovered",
      "latitude": 45.477672,
      "longitude": -73.583161,
      "tags": {
        "shop": "supermarket",
        "amenity": "",
        "brand": "IGA"
      }
    },
    {
      "store_id": "scan-5bbe5e30670a",
      "name": "Aubut Distribution Alimentaire",
      "chain": "Aubut Distribution Alimentaire",
      "address": "3975 Rue Saint-Ambroise, Montr\u00e9al",
      "distance_km": 2.99,
      "price_tier": "mid",
      "quality_rating": 3.6,
      "location_id": "auto-discovered",
      "latitude": 45.476417,
      "longitude": -73.580281,
      "tags": {
        "shop": "wholesale",
        "amenity": "",
        "brand": ""
      }
    },
    {
      "store_id": "scan-b2a33657521f",
      "name": "L'Intermarch\u00e9",
      "chain": "L'Intermarch\u00e9",
      "address": "1000 Avenue du Mont-Royal Est, Montr\u00e9al",
      "distance_km": 3.01,
      "price_tier": "mid",
      "quality_rating": 3.6,
      "location_id": "auto-discovered",
      "latitude": 45.527419,
      "longitude": -73.57935,
      "tags": {
        "shop": "supermarket",
        "amenity": "",
        "brand": ""
      }
    },
    {
      "store_id": "scan-f69cc06676e3",
      "name": "Sal\u00e9 Sucr\u00e9",
      "chain": "Sal\u00e9 Sucr\u00e9",
      "address": "1133 Avenue du Mont-Royal Est",
      "distance_km": 3.11,
      "price_tier": "mid",
      "quality_rating": 3.6,
      "location_id": "auto-discovered",
      "latitude": 45.528461,
      "longitude": -73.578962,
      "tags": {
        "shop": "grocery",
        "amenity": "",
        "brand": ""
      }
    },
    {
      "store_id": "scan-bd04524fa99b",
      "name": "Fruiterie Muscat",
      "chain": "Fruiterie Muscat",
      "address": "5000 Rue Saint-Denis, Montr\u00e9al",
      "distance_km": 3.18,
      "price_tier": "mid",
      "quality_rating": 3.6,
      "location_id": "auto-discovered",
      "latitude": 45.526246,
      "longitude": -73.5883,
      "tags": {
        "shop": "supermarket",
        "amenity": "",
        "brand": ""
      }
    },
    {
      "store_id": "scan-4d5edf2a7597",
      "name": "March\u00e9 3 Piliers",
      "chain": "March\u00e9 3 Piliers",
      "address": "750 Rue Gilford, Montr\u00e9al",
      "distance_km": 3.19,
      "price_tier": "mid",
      "quality_rating": 3.6,
      "location_id": "auto-discovered",
      "latitude": 45.527437,
      "longitude": -73.585438,
      "tags": {
        "shop": "supermarket",
        "amenity": "",
        "brand": ""
      }
    },
    {
      "store_id": "scan-28486f86e494",
      "name": "Les 3 Gourmets",
      "chain": "Les 3 Gourmets",
      "address": "1266 Avenue du Mont-Royal Est",
      "distance_km": 3.19,
      "price_tier": "premium",
      "quality_rating": 3.5,
      "location_id": "auto-discovered",
      "latitude": 45.529449,
      "longitude": -73.577663,
      "tags": {
        "shop": "grocery",
        "amenity": "",
        "brand": ""
      }
    },
    {
      "store_id": "scan-f2839eaf7c91",
      "name": "Supermarch\u00e9 PA du Parc",
      "chain": "Supermarch\u00e9 PA du Parc",
      "address": "5242 Avenue du Parc, Montr\u00e9al",
      "distance_km": 3.22,
      "price_tier": "mid",
      "quality_rating": 3.6,
      "location_id": "auto-discovered",
      "latitude": 45.520514,
      "longitude": -73.598682,
      "tags": {
        "shop": "supermarket",
        "amenity": "",
        "brand": ""
      }
    },
    {
      "store_id": "scan-1c74cb38f77a",
      "name": "March\u00e9 Laurier",
      "chain": "March\u00e9 Laurier",
      "address": "377 Avenue Laurier Est, Montr\u00e9al",
      "distance_km": 3.28,
      "price_tier": "mid",
      "quality_rating": 3.6,
      "location_id": "auto-discovered",
      "latitude": 45.526577,
      "longitude": -73.589905,
      "tags": {
        "shop": "supermarket",
        "amenity": "",
        "brand": ""
      }
    },
    {
      "store_id": "scan-ab6fc9d816ed",
      "name": "March\u00e9 Metro Bigras",
      "chain": "March\u00e9 Metro Bigras",
      "address": "2008 Rue Gauthier, Montr\u00e9al",
      "distance_km": 3.29,
      "price_tier": "mid",
      "quality_rating": 3.5,
      "location_id": "auto-discovered",
      "latitude": 45.531283,
      "longitude": -73.565605,
      "tags": {
        "shop": "supermarket",
        "amenity": "",
        "brand": ""
      }
    },
    {
      "store_id": "scan-f9b2553ad582",
      "name": "March\u00e9 \u00d4 Nature",
      "chain": "March\u00e9 \u00d4 Nature",
      "address": "1376 Avenue du Mont-Royal Est",
      "distance_km": 3.29,
      "price_tier": "mid",
      "quality_rating": 3.6,
      "location_id": "auto-discovered",
      "latitude": 45.530569,
      "longitude": -73.576607,
      "tags": {
        "shop": "supermarket",
        "amenity": "",
        "brand": ""
      }
    },
    {
      "store_id": "scan-7b31ab3e1661",
      "name": "Distribution MCY",
      "chain": "Distribution MCY",
      "address": "Address unavailable",
      "distance_km": 3.3,
      "price_tier": "mid",
      "quality_rating": 3.5,
      "location_id": "auto-discovered",
      "latitude": 45.47213,
      "longitude": -73.570321,
      "tags": {
        "shop": "wholesale",
        "amenity": "",
        "brand": ""
      }
    },
    {
      "store_id": "scan-e4e19f6d4c0d",
      "name": "\u00c9picerie 3",
      "chain": "\u00c9picerie 3",
      "address": "2375 Rue Sainte-Catherine Est",
      "distance_km": 3.32,
      "price_tier": "mid",
      "quality_rating": 3.6,
      "location_id": "auto-discovered",
      "latitude": 45.528157,
      "longitude": -73.547471,
      "tags": {
        "shop": "greengrocer",
        "amenity": "cafe",
        "brand": ""
      }
    },
    {
      "store_id": "scan-e0957b1ac597",
      "name": "Metro",
      "chain": "Metro",
      "address": "1490 Avenue du Mont-Royal Est, Montr\u00e9al",
      "distance_km": 3.35,
      "price_tier": "mid",
      "quality_rating": 3.7,
      "location_id": "auto-discovered",
      "latitude": 45.531159,
      "longitude": -73.576015,
      "tags": {
        "shop": "supermarket",
        "amenity": "",
        "brand": "Metro"
      }
    },
    {
      "store_id": "scan-78346c97aada",
      "name": "Bleu & Persill\u00e9",
      "chain": "Bleu & Persill\u00e9",
      "address": "1475 Avenue du Mont-Royal Est",
      "distance_km": 3.36,
      "price_tier": "mid",
      "quality_rating": 3.6,
      "location_id": "auto-discovered",
      "latitude": 45.531247,
      "longitude": -73.576349,
      "tags": {
        "shop": "supermarket",
        "amenity": "",
        "brand": ""
      }
    },
    {
      "store_id": "scan-5111ef58d11f",
      "name": "Maxi",
      "chain": "Maxi",
      "address": "Address unavailable",
      "distance_km": 3.37,
      "price_tier": "budget",
      "quality_rating": 3.7,
      "location_id": "auto-discovered",
      "latitude": 45.471585,
      "longitude": -73.562314,
      "tags": {
        "shop": "supermarket",
        "amenity": "",
        "brand": "Maxi"
      }
    },
    {
      "store_id": "scan-b2d9e5a916f1",
      "name": "Valmont",
      "chain": "Valmont",
      "address": "1495 Avenue du Mont-Royal Est",
      "distance_km": 3.38,
      "price_tier": "mid",
      "quality_rating": 3.8,
      "location_id": "auto-discovered",
      "latitude": 45.531447,
      "longitude": -73.576161,
      "tags": {
        "shop": "greengrocer",
        "amenity": "",
        "brand": ""
      }
    },
    {
      "store_id": "scan-790c58d9f18a",
      "name": "March\u00e9 Ridgewood et Fleurs",
      "chain": "March\u00e9 Ridgewood et Fleurs",
      "address": "4730 Chemin de la C\u00f4te-des-Neiges, Montr\u00e9al",
      "distance_km": 3.44,
      "price_tier": "mid",
      "quality_rating": 3.5,
      "location_id": "auto-discovered",
      "latitude": 45.49554,
      "longitude": -73.610488,
      "tags": {
        "shop": "supermarket",
        "amenity": "",
        "brand": ""
      }
    },
    {
      "store_id": "scan-c20f96a682ab",
      "name": "Intermarch\u00e9",
      "chain": "Intermarch\u00e9",
      "address": "1670 Avenue du Mont-Royal Est",
      "distance_km": 3.46,
      "price_tier": "mid",
      "quality_rating": 3.8,
      "location_id": "auto-discovered",
      "latitude": 45.532363,
      "longitude": -73.57492,
      "tags": {
        "shop": "supermarket",
        "amenity": "",
        "brand": "Intermarch\u00e9"
      }
    },
    {
      "store_id": "scan-537eee76349f",
      "name": "Fruits du jour",
      "chain": "Fruits du jour",
      "address": "1655 Avenue Mont Royal Est",
      "distance_km": 3.47,
      "price_tier": "mid",
      "quality_rating": 3.6,
      "location_id": "auto-discovered",
      "latitude": 45.532403,
      "longitude": -73.575266,
      "tags": {
        "shop": "greengrocer",
        "amenity": "",
        "brand": ""
      }
    },
    {
      "store_id": "scan-18884f87dd6b",
      "name": "Top discount \u00c9picerie Fran\u00e7aise",
      "chain": "Top discount \u00c9picerie Fran\u00e7aise",
      "address": "1678 Avenue du Mont-Royal Est",
      "distance_km": 3.47,
      "price_tier": "budget",
      "quality_rating": 3.6,
      "location_id": "auto-discovered",
      "latitude": 45.532435,
      "longitude": -73.574865,
      "tags": {
        "shop": "grocery",
        "amenity": "",
        "brand": ""
      }
    },
    {
      "store_id": "scan-3866c68f3726",
      "name": "Bio Terre",
      "chain": "Bio Terre",
      "address": "201 Rue Saint-Viateur Ouest, Montr\u00e9al",
      "distance_km": 3.58,
      "price_tier": "mid",
      "quality_rating": 3.6,
      "location_id": "auto-discovered",
      "latitude": 45.523347,
      "longitude": -73.601382,
      "tags": {
        "shop": "greengrocer",
        "amenity": "",
        "brand": ""
      }
    },
    {
      "store_id": "scan-5fbde3fa33a1",
      "name": "Lipa's",
      "chain": "Lipa's",
      "address": "5573 Avenue du Parc, Montr\u00e9al",
      "distance_km": 3.59,
      "price_tier": "mid",
      "quality_rating": 3.5,
      "location_id": "auto-discovered",
      "latitude": 45.522518,
      "longitude": -73.602528,
      "tags": {
        "shop": "supermarket",
        "amenity": "",
        "brand": ""
      }
    },
    {
      "store_id": "scan-a75e30e6e927",
      "name": "\u00c9picerie Latina",
      "chain": "\u00c9picerie Latina",
      "address": "185 Rue Saint-Viateur Ouest, Montr\u00e9al",
      "distance_km": 3.59,
      "price_tier": "mid",
      "quality_rating": 3.7,
      "location_id": "auto-discovered",
      "latitude": 45.523646,
      "longitude": -73.601115,
      "tags": {
        "shop": "supermarket",
        "amenity": "",
        "brand": ""
      }
    },
    {
      "store_id": "scan-fabfdd9b6e6b",
      "name": "Super C",
      "chain": "Super C",
      "address": "5300 Rue Saint-Hubert, Montr\u00e9al",
      "distance_km": 3.63,
      "price_tier": "budget",
      "quality_rating": 3.8,
      "location_id": "auto-discovered",
      "latitude": 45.529936,
      "longitude": -73.590745,
      "tags": {
        "shop": "supermarket",
        "amenity": "",
        "brand": "Super C"
      }
    },
    {
      "store_id": "scan-9a2537a49801",
      "name": "William J. Walter Saucissier",
      "chain": "William J. Walter Saucissier",
      "address": "1957 Avenue du Mont-Royal Est",
      "distance_km": 3.65,
      "price_tier": "mid",
      "quality_rating": 3.6,
      "location_id": "auto-discovered",
      "latitude": 45.534279,
      "longitude": -73.573472,
      "tags": {
        "shop": "supermarket",
        "amenity": "",
        "brand": ""
      }
    },
    {
      "store_id": "scan-d3675672dc6d",
      "name": "Maxi",
      "chain": "Maxi",
      "address": "5647 Avenue du Parc, Montr\u00e9al",
      "distance_km": 3.7,
      "price_tier": "budget",
      "quality_rating": 3.8,
      "location_id": "auto-discovered",
      "latitude": 45.523071,
      "longitude": -73.60377,
      "tags": {
        "shop": "supermarket",
        "amenity": "",
        "brand": "Maxi"
      }
    },
    {
      "store_id": "scan-9f3ef4415b17",
      "name": "fruit mon victoria",
      "chain": "fruit mon victoria",
      "address": "4818 Rue Sherbrooke Ouest, Westmount",
      "distance_km": 3.71,
      "price_tier": "mid",
      "quality_rating": 3.5,
      "location_id": "auto-discovered",
      "latitude": 45.479326,
      "longitude": -73.602667,
      "tags": {
        "shop": "supermarket",
        "amenity": "",
        "brand": ""
      }
    },
    {
      "store_id": "scan-6937c1b88d7f",
      "name": "Metro",
      "chain": "Metro",
      "address": "1293 Avenue Laurier Est, Montr\u00e9al",
      "distance_km": 3.72,
      "price_tier": "mid",
      "quality_rating": 3.8,
      "location_id": "auto-discovered",
      "latitude": 45.532944,
      "longitude": -73.584435,
      "tags": {
        "shop": "supermarket",
        "amenity": "",
        "brand": "Metro"
      }
    },
    {
      "store_id": "scan-c3c1c8d68254",
      "name": "Eatz",
      "chain": "Eatz",
      "address": "Address unavailable",
      "distance_km": 3.73,
      "price_tier": "mid",
      "quality_rating": 3.5,
      "location_id": "auto-discovered",
      "latitude": 45.47928,
      "longitude": -73.602835,
      "tags": {
        "shop": "supermarket",
        "amenity": "",
        "brand": ""
      }
    },
    {
      "store_id": "scan-0f04ff35480d",
      "name": "Metro",
      "chain": "Metro",
      "address": "Address unavailable",
      "distance_km": 3.74,
      "price_tier": "mid",
      "quality_rating": 3.7,
      "location_id": "auto-discovered",
      "latitude": 45.478976,
      "longitude": -73.602616,
      "tags": {
        "shop": "supermarket",
        "amenity": "",
        "brand": "Metro"
      }
    },
    {
      "store_id": "scan-2da68f9dd84b",
      "name": "D\u00e9panneur Circle",
      "chain": "D\u00e9panneur Circle",
      "address": "2196 Rue Marie-Anne Est, Montr\u00e9al",
      "distance_km": 3.74,
      "price_tier": "mid",
      "quality_rating": 3.5,
      "location_id": "auto-discovered",
      "latitude": 45.535275,
      "longitude": -73.568836,
      "tags": {
        "shop": "supermarket",
        "amenity": "",
        "brand": ""
      }
    },
    {
      "store_id": "scan-6143b6692513",
      "name": "IGA",
      "chain": "IGA",
      "address": "2600 Ontario E.",
      "distance_km": 3.78,
      "price_tier": "mid",
      "quality_rating": 3.7,
      "location_id": "auto-discovered",
      "latitude": 45.53375,
      "longitude": -73.551035,
      "tags": {
        "shop": "supermarket",
        "amenity": "",
        "brand": "IGA"
      }
    },
    {
      "store_id": "scan-1c897a4a4002",
      "name": "\u00c9picerie Mile-End",
      "chain": "\u00c9picerie Mile-End",
      "address": "Address unavailable",
      "distance_km": 3.79,
      "price_tier": "mid",
      "quality_rating": 3.7,
      "location_id": "auto-discovered",
      "latitude": 45.523243,
      "longitude": -73.604977,
      "tags": {
        "shop": "supermarket",
        "amenity": "",
        "brand": ""
      }
    },
    {
      "store_id": "scan-f5ab9ed422b2",
      "name": "Maxi",
      "chain": "Maxi",
      "address": "1180 Avenue Bernard, Montr\u00e9al",
      "distance_km": 3.8,
      "price_tier": "budget",
      "quality_rating": 3.8,
      "location_id": "auto-discovered",
      "latitude": 45.520646,
      "longitude": -73.607824,
      "tags": {
        "shop": "supermarket",
        "amenity": "",
        "brand": "Maxi"
      }
    },
    {
      "store_id": "scan-cbaa64608008",
      "name": "mission sante thuy",
      "chain": "mission sante thuy",
      "address": "Address unavailable",
      "distance_km": 3.81,
      "price_tier": "mid",
      "quality_rating": 3.5,
      "location_id": "auto-discovered",
      "latitude": 45.521173,
      "longitude": -73.607515,
      "tags": {
        "shop": "supermarket",
        "amenity": "",
        "brand": ""
      }
    },
    {
      "store_id": "scan-ddec118bc65c",
      "name": "walters kosher market",
      "chain": "walters kosher market",
      "address": "1012 Avenue Bernard",
      "distance_km": 3.82,
      "price_tier": "mid",
      "quality_rating": 3.5,
      "location_id": "auto-discovered",
      "latitude": 45.522585,
      "longitude": -73.606239,
      "tags": {
        "shop": "supermarket",
        "amenity": "",
        "brand": ""
      }
    },
    {
      "store_id": "scan-e68eab3eb52e",
      "name": "Epicerie Hiep Phat",
      "chain": "Epicerie Hiep Phat",
      "address": "2679 Rue Ontario Est",
      "distance_km": 3.84,
      "price_tier": "mid",
      "quality_rating": 3.5,
      "location_id": "auto-discovered",
      "latitude": 45.534462,
      "longitude": -73.551741,
      "tags": {
        "shop": "grocery",
        "amenity": "",
        "brand": ""
      }
    },
    {
      "store_id": "scan-d0706a93c0f8",
      "name": "Branche d'Olivier",
      "chain": "Branche d'Olivier",
      "address": "Address unavailable",
      "distance_km": 3.87,
      "price_tier": "mid",
      "quality_rating": 3.5,
      "location_id": "auto-discovered",
      "latitude": 45.534923,
      "longitude": -73.582227,
      "tags": {
        "shop": "health_food",
        "amenity": "",
        "brand": ""
      }
    },
    {
      "store_id": "scan-8187a4712ec0",
      "name": "Fruiterie Roger",
      "chain": "Fruiterie Roger",
      "address": "Address unavailable",
      "distance_km": 3.95,
      "price_tier": "mid",
      "quality_rating": 3.6,
      "location_id": "auto-discovered",
      "latitude": 45.536119,
      "longitude": -73.579949,
      "tags": {
        "shop": "",
        "amenity": "marketplace",
        "brand": ""
      }
    },
    {
      "store_id": "scan-081b0f767c67",
      "name": "Supermarch\u00e9 Metro Mont-Royal",
      "chain": "Supermarch\u00e9 Metro Mont-Royal",
      "address": "2275 Avenue du Mont-Royal Est, Montr\u00e9al",
      "distance_km": 3.98,
      "price_tier": "mid",
      "quality_rating": 3.5,
      "location_id": "auto-discovered",
      "latitude": 45.537403,
      "longitude": -73.570759,
      "tags": {
        "shop": "supermarket",
        "amenity": "",
        "brand": ""
      }
    },
    {
      "store_id": "scan-f72e772a9ab5",
      "name": "Chez Robin",
      "chain": "Chez Robin",
      "address": "3819 Rue Wellington",
      "distance_km": 4.0,
      "price_tier": "mid",
      "quality_rating": 3.8,
      "location_id": "auto-discovered",
      "latitude": 45.465692,
      "longitude": -73.566891,
      "tags": {
        "shop": "grocery",
        "amenity": "",
        "brand": ""
      }
    },
    {
      "store_id": "scan-10c0bc047cf6",
      "name": "IGA",
      "chain": "IGA",
      "address": "Address unavailable",
      "distance_km": 4.11,
      "price_tier": "mid",
      "quality_rating": 3.8,
      "location_id": "auto-discovered",
      "latitude": 45.502404,
      "longitude": -73.5146,
      "tags": {
        "shop": "supermarket",
        "amenity": "",
        "brand": "IGA"
      }
    },
    {
      "store_id": "scan-a19ac2bac13d",
      "name": "Bulk Barn",
      "chain": "Bulk Barn",
      "address": "3939 Rue Wellington, Montr\u00e9al",
      "distance_km": 4.15,
      "price_tier": "mid",
      "quality_rating": 3.8,
      "location_id": "auto-discovered",
      "latitude": 45.46442,
      "longitude": -73.567005,
      "tags": {
        "shop": "supermarket",
        "amenity": "",
        "brand": "Bulk Barn"
      }
    },
    {
      "store_id": "scan-d66f41e51c30",
      "name": "Metro",
      "chain": "Metro",
      "address": "5150 Chemin de la C\u00f4te-des-Neiges, Montr\u00e9al",
      "distance_km": 4.17,
      "price_tier": "mid",
      "quality_rating": 3.8,
      "location_id": "auto-discovered",
      "latitude": 45.494964,
      "longitude": -73.619956,
      "tags": {
        "shop": "supermarket",
        "amenity": "",
        "brand": "Metro"
      }
    },
    {
      "store_id": "scan-b13beea1b27e",
      "name": "Top Discount",
      "chain": "Top Discount",
      "address": "3981 Rue Wellington, Montr\u00e9al",
      "distance_km": 4.19,
      "price_tier": "budget",
      "quality_rating": 3.5,
      "location_id": "auto-discovered",
      "latitude": 45.463975,
      "longitude": -73.56704,
      "tags": {
        "shop": "supermarket",
        "amenity": "",
        "brand": ""
      }
    },
    {
      "store_id": "scan-f3fcadc81741",
      "name": "Couffin Bio",
      "chain": "Couffin Bio",
      "address": "5184 Chemin de la C\u00f4te-des-Neiges, Montr\u00e9al",
      "distance_km": 4.21,
      "price_tier": "mid",
      "quality_rating": 3.5,
      "location_id": "auto-discovered",
      "latitude": 45.495402,
      "longitude": -73.620604,
      "tags": {
        "shop": "greengrocer",
        "amenity": "",
        "brand": ""
      }
    },
    {
      "store_id": "scan-fc4f524238c0",
      "name": "Le Baobab",
      "chain": "Le Baobab",
      "address": "5190A Chemin de la C\u00f4te-des-Neiges, Montr\u00e9al",
      "distance_km": 4.22,
      "price_tier": "mid",
      "quality_rating": 3.5,
      "location_id": "auto-discovered",
      "latitude": 45.495459,
      "longitude": -73.620666,
      "tags": {
        "shop": "supermarket",
        "amenity": "",
        "brand": ""
      }
    },
    {
      "store_id": "scan-53359a769a10",
      "name": "Exo-Fruits",
      "chain": "Exo-Fruits",
      "address": "5192 Chemin de la C\u00f4te-des-Neiges, Montr\u00e9al",
      "distance_km": 4.24,
      "price_tier": "mid",
      "quality_rating": 3.6,
      "location_id": "auto-discovered",
      "latitude": 45.49542,
      "longitude": -73.620894,
      "tags": {
        "shop": "greengrocer",
        "amenity": "",
        "brand": ""
      }
    },
    {
      "store_id": "scan-dc134a3bf099",
      "name": "Provigo",
      "chain": "Provigo",
      "address": "Address unavailable",
      "distance_km": 4.28,
      "price_tier": "mid",
      "quality_rating": 3.8,
      "location_id": "auto-discovered",
      "latitude": 45.4669,
      "longitude": -73.543856,
      "tags": {
        "shop": "supermarket",
        "amenity": "",
        "brand": "Provigo"
      }
    },
    {
      "store_id": "scan-4e2139938ca5",
      "name": "Motty's",
      "chain": "Motty's",
      "address": "Address unavailable",
      "distance_km": 4.28,
      "price_tier": "mid",
      "quality_rating": 3.5,
      "location_id": "auto-discovered",
      "latitude": 45.524345,
      "longitude": -73.611638,
      "tags": {
        "shop": "supermarket",
        "amenity": "",
        "brand": ""
      }
    },
    {
      "store_id": "scan-8773e93a4dea",
      "name": "Le Serpolet",
      "chain": "Le Serpolet",
      "address": "1457 Avenue Van Horne, Montr\u00e9al",
      "distance_km": 4.28,
      "price_tier": "mid",
      "quality_rating": 3.5,
      "location_id": "auto-discovered",
      "latitude": 45.519622,
      "longitude": -73.615899,
      "tags": {
        "shop": "health_food",
        "amenity": "",
        "brand": ""
      }
    },
    {
      "store_id": "scan-ece8eabeadca",
      "name": "March\u00e9 Jean-Brillant/C\u00f4te-Des-Neiges",
      "chain": "March\u00e9 Jean-Brillant/C\u00f4te-Des-Neiges",
      "address": "Address unavailable",
      "distance_km": 4.28,
      "price_tier": "mid",
      "quality_rating": 3.6,
      "location_id": "auto-discovered",
      "latitude": 45.496388,
      "longitude": -73.621736,
      "tags": {
        "shop": "greengrocer",
        "amenity": "marketplace",
        "brand": ""
      }
    },
    {
      "store_id": "scan-c1de0e7c5b7e",
      "name": "IGA March\u00e9 de l'\u00cele-des- S\u0153urs",
      "chain": "IGA",
      "address": "30 Place du Commerce, Montr\u00e9al",
      "distance_km": 4.29,
      "price_tier": "mid",
      "quality_rating": 3.7,
      "location_id": "auto-discovered",
      "latitude": 45.468171,
      "longitude": -73.540089,
      "tags": {
        "shop": "supermarket",
        "amenity": "",
        "brand": "IGA"
      }
    },
    {
      "store_id": "scan-f62b3396253e",
      "name": "Fruiterie Soleil",
      "chain": "Fruiterie Soleil",
      "address": "421 Rue de l'\u00c9glise, Montr\u00e9al",
      "distance_km": 4.3,
      "price_tier": "mid",
      "quality_rating": 3.6,
      "location_id": "auto-discovered",
      "latitude": 45.463015,
      "longitude": -73.569309,
      "tags": {
        "shop": "supermarket",
        "amenity": "",
        "brand": ""
      }
    },
    {
      "store_id": "scan-fa60e3e34f38",
      "name": "Pharmaprix",
      "chain": "Pharmaprix",
      "address": "38 Place du Commerce, Verdun",
      "distance_km": 4.3,
      "price_tier": "mid",
      "quality_rating": 3.6,
      "location_id": "auto-discovered",
      "latitude": 45.467662,
      "longitude": -73.541182,
      "tags": {
        "shop": "supermarket",
        "amenity": "",
        "brand": ""
      }
    },
    {
      "store_id": "scan-9d1d4a119c29",
      "name": "Metro",
      "chain": "Metro",
      "address": "Address unavailable",
      "distance_km": 4.3,
      "price_tier": "mid",
      "quality_rating": 3.7,
      "location_id": "auto-discovered",
      "latitude": 45.46308,
      "longitude": -73.568476,
      "tags": {
        "shop": "supermarket",
        "amenity": "",
        "brand": "Metro"
      }
    },
    {
      "store_id": "scan-77f28546a2a5",
      "name": "March\u00e9 du Village",
      "chain": "March\u00e9 du Village",
      "address": "5415 Avenue Gatineau, Montr\u00e9al",
      "distance_km": 4.35,
      "price_tier": "mid",
      "quality_rating": 3.5,
      "location_id": "auto-discovered",
      "latitude": 45.497754,
      "longitude": -73.622844,
      "tags": {
        "shop": "supermarket",
        "amenity": "",
        "brand": ""
      }
    },
    {
      "store_id": "scan-94c45d3fa75f",
      "name": "Maxi",
      "chain": "Maxi",
      "address": "2925 Rue Sherbrooke Est, Montr\u00e9al",
      "distance_km": 4.41,
      "price_tier": "budget",
      "quality_rating": 3.8,
      "location_id": "auto-discovered",
      "latitude": 45.540973,
      "longitude": -73.559292,
      "tags": {
        "shop": "supermarket",
        "amenity": "",
        "brand": "Maxi"
      }
    },
    {
      "store_id": "scan-aab5427ad911",
      "name": "H Mart",
      "chain": "H Mart",
      "address": "2116 Boulevard D\u00e9carie, Montr\u00e9al",
      "distance_km": 4.44,
      "price_tier": "mid",
      "quality_rating": 3.8,
      "location_id": "auto-discovered",
      "latitude": 45.473732,
      "longitude": -73.607901,
      "tags": {
        "shop": "supermarket",
        "amenity": "",
        "brand": "H Mart"
      }
    },
    {
      "store_id": "scan-2edab7f115fc",
      "name": "Mondial",
      "chain": "Mondial",
      "address": "6008 Avenue de Darlington, Montr\u00e9al",
      "distance_km": 4.45,
      "price_tier": "mid",
      "quality_rating": 3.5,
      "location_id": "auto-discovered",
      "latitude": 45.506797,
      "longitude": -73.623918,
      "tags": {
        "shop": "supermarket",
        "amenity": "",
        "brand": ""
      }
    },
    {
      "store_id": "scan-4698268e54c5",
      "name": "March\u00e9 La Gazelle",
      "chain": "March\u00e9 La Gazelle",
      "address": "4307 Rue Wellington",
      "distance_km": 4.54,
      "price_tier": "mid",
      "quality_rating": 3.6,
      "location_id": "auto-discovered",
      "latitude": 45.460828,
      "longitude": -73.56732,
      "tags": {
        "shop": "grocery",
        "amenity": "",
        "brand": ""
      }
    },
    {
      "store_id": "scan-9197e48b4e3c",
      "name": "J'ai Feng",
      "chain": "J'ai Feng",
      "address": "43 Rue Beaubien Est, Montr\u00e9al",
      "distance_km": 4.54,
      "price_tier": "mid",
      "quality_rating": 3.6,
      "location_id": "auto-discovered",
      "latitude": 45.530796,
      "longitude": -73.608121,
      "tags": {
        "shop": "grocery",
        "amenity": "",
        "brand": ""
      }
    },
    {
      "store_id": "scan-328032ec2843",
      "name": "March\u00e9 Oda",
      "chain": "March\u00e9 Oda",
      "address": "1290 Avenue Th\u00e9r\u00e8se-Lavoie-Roux, Outremont",
      "distance_km": 4.55,
      "price_tier": "mid",
      "quality_rating": 3.6,
      "location_id": "auto-discovered",
      "latitude": 45.522503,
      "longitude": -73.617597,
      "tags": {
        "shop": "supermarket",
        "amenity": "",
        "brand": ""
      }
    },
    {
      "store_id": "scan-215ae881090a",
      "name": "Vert pomme",
      "chain": "Vert pomme",
      "address": "Address unavailable",
      "distance_km": 4.56,
      "price_tier": "mid",
      "quality_rating": 3.8,
      "location_id": "auto-discovered",
      "latitude": 45.460661,
      "longitude": -73.567066,
      "tags": {
        "shop": "greengrocer",
        "amenity": "",
        "brand": ""
      }
    },
    {
      "store_id": "scan-eaf96021e9a7",
      "name": "March\u00e9 Inter-Asia",
      "chain": "March\u00e9 Inter-Asia",
      "address": "4335 Rue Wellington",
      "distance_km": 4.58,
      "price_tier": "mid",
      "quality_rating": 3.5,
      "location_id": "auto-discovered",
      "latitude": 45.460504,
      "longitude": -73.567365,
      "tags": {
        "shop": "grocery",
        "amenity": "",
        "brand": ""
      }
    },
    {
      "store_id": "scan-4f8898ba3a55",
      "name": "March\u00e9 Branche d'Olivier",
      "chain": "March\u00e9 Branche d'Olivier",
      "address": "4342 Rue Wellington",
      "distance_km": 4.58,
      "price_tier": "mid",
      "quality_rating": 3.8,
      "location_id": "auto-discovered",
      "latitude": 45.460505,
      "longitude": -73.567077,
      "tags": {
        "shop": "grocery",
        "amenity": "",
        "brand": ""
      }
    },
    {
      "store_id": "scan-a7bd04e6b535",
      "name": "Maxi",
      "chain": "Maxi",
      "address": "6304 Rue Saint-Hubert",
      "distance_km": 4.58,
      "price_tier": "budget",
      "quality_rating": 3.8,
      "location_id": "auto-discovered",
      "latitude": 45.535219,
      "longitude": -73.601372,
      "tags": {
        "shop": "supermarket",
        "amenity": "",
        "brand": "Maxi"
      }
    },
    {
      "store_id": "scan-1895100f7e37",
      "name": "Metro",
      "chain": "Metro",
      "address": "Address unavailable",
      "distance_km": 4.62,
      "price_tier": "mid",
      "quality_rating": 3.7,
      "location_id": "auto-discovered",
      "latitude": 45.476739,
      "longitude": -73.614744,
      "tags": {
        "shop": "supermarket",
        "amenity": "",
        "brand": "Metro"
      }
    },
    {
      "store_id": "scan-4edcfbbde626",
      "name": "Fruiterie Natura",
      "chain": "Fruiterie Natura",
      "address": "329 Rue Beaubien Est",
      "distance_km": 4.62,
      "price_tier": "mid",
      "quality_rating": 3.6,
      "location_id": "auto-discovered",
      "latitude": 45.533193,
      "longitude": -73.605946,
      "tags": {
        "shop": "greengrocer",
        "amenity": "",
        "brand": ""
      }
    },
    {
      "store_id": "scan-c89c0411ee54",
      "name": "Metro",
      "chain": "Metro",
      "address": "2875 Avenue Van Horne, Montr\u00e9al",
      "distance_km": 4.62,
      "price_tier": "mid",
      "quality_rating": 3.8,
      "location_id": "auto-discovered",
      "latitude": 45.508357,
      "longitude": -73.625793,
      "tags": {
        "shop": "supermarket",
        "amenity": "",
        "brand": "Metro"
      }
    },
    {
      "store_id": "scan-0a592b07223a",
      "name": "\u00c9picerie LOCO",
      "chain": "\u00c9picerie LOCO",
      "address": "4437 Rue Wellington",
      "distance_km": 4.68,
      "price_tier": "mid",
      "quality_rating": 3.8,
      "location_id": "auto-discovered",
      "latitude": 45.459636,
      "longitude": -73.567436,
      "tags": {
        "shop": "supermarket",
        "amenity": "",
        "brand": ""
      }
    },
    {
      "store_id": "scan-fe0d4a89146b",
      "name": "Super March\u00e9 Beaubien",
      "chain": "Super March\u00e9 Beaubien",
      "address": "545 Rue Beaubien Est, Montr\u00e9al",
      "distance_km": 4.71,
      "price_tier": "mid",
      "quality_rating": 3.6,
      "location_id": "auto-discovered",
      "latitude": 45.535267,
      "longitude": -73.6041,
      "tags": {
        "shop": "greengrocer",
        "amenity": "",
        "brand": ""
      }
    },
    {
      "store_id": "scan-9e36a9369f6b",
      "name": "IGA Barcelo Molson",
      "chain": "IGA",
      "address": "5290 Rue Molson, Montr\u00e9al",
      "distance_km": 4.72,
      "price_tier": "mid",
      "quality_rating": 3.7,
      "location_id": "auto-discovered",
      "latitude": 45.54368,
      "longitude": -73.576476,
      "tags": {
        "shop": "supermarket",
        "amenity": "",
        "brand": "IGA"
      }
    },
    {
      "store_id": "scan-f435485fc799",
      "name": "Fooderie",
      "chain": "Fooderie",
      "address": "Address unavailable",
      "distance_km": 4.73,
      "price_tier": "mid",
      "quality_rating": 3.5,
      "location_id": "auto-discovered",
      "latitude": 45.52754,
      "longitude": -73.615596,
      "tags": {
        "shop": "supermarket",
        "amenity": "",
        "brand": ""
      }
    },
    {
      "store_id": "scan-774fb0990071",
      "name": "IGA",
      "chain": "IGA",
      "address": "4500 Rue Wellington, Montr\u00e9al",
      "distance_km": 4.74,
      "price_tier": "mid",
      "quality_rating": 3.8,
      "location_id": "auto-discovered",
      "latitude": 45.459039,
      "longitude": -73.567205,
      "tags": {
        "shop": "supermarket",
        "amenity": "",
        "brand": "IGA"
      }
    },
    {
      "store_id": "scan-f74c16be614e",
      "name": "Fruiterie Figue Royale",
      "chain": "Fruiterie Figue Royale",
      "address": "901 Rue Beaubien Est",
      "distance_km": 4.77,
      "price_tier": "mid",
      "quality_rating": 3.5,
      "location_id": "auto-discovered",
      "latitude": 45.536634,
      "longitude": -73.602754,
      "tags": {
        "shop": "greengrocer",
        "amenity": "",
        "brand": ""
      }
    },
    {
      "store_id": "scan-ce07c5147a7a",
      "name": "Maxi",
      "chain": "Maxi",
      "address": "2535 Rue Masson, Montr\u00e9al",
      "distance_km": 4.77,
      "price_tier": "budget",
      "quality_rating": 3.8,
      "location_id": "auto-discovered",
      "latitude": 45.543975,
      "longitude": -73.577962,
      "tags": {
        "shop": "supermarket",
        "amenity": "",
        "brand": "Maxi"
      }
    },
    {
      "store_id": "scan-8675f314cf55",
      "name": "Provigo",
      "chain": "Provigo",
      "address": "2925 Rue Rachel Est, Montr\u00e9al",
      "distance_km": 4.82,
      "price_tier": "mid",
      "quality_rating": 4.0,
      "location_id": "auto-discovered",
      "latitude": 45.544947,
      "longitude": -73.562534,
      "tags": {
        "shop": "supermarket",
        "amenity": "",
        "brand": "Provigo"
      }
    },
    {
      "store_id": "scan-ebe85ef9795b",
      "name": "Royal Indian Spices",
      "chain": "Royal Indian Spices",
      "address": "Address unavailable",
      "distance_km": 4.85,
      "price_tier": "mid",
      "quality_rating": 3.5,
      "location_id": "auto-discovered",
      "latitude": 45.458092,
      "longitude": -73.567295,
      "tags": {
        "shop": "grocery",
        "amenity": "",
        "brand": ""
      }
    },
    {
      "store_id": "scan-8945d0c4857d",
      "name": "Les March\u00e9s Tradition",
      "chain": "Les March\u00e9s Tradition",
      "address": "1200 Rue Beaubien Est",
      "distance_km": 4.86,
      "price_tier": "mid",
      "quality_rating": 3.6,
      "location_id": "auto-discovered",
      "latitude": 45.538625,
      "longitude": -73.600618,
      "tags": {
        "shop": "supermarket",
        "amenity": "",
        "brand": ""
      }
    },
    {
      "store_id": "scan-7403501faac7",
      "name": "La Cueillette",
      "chain": "La Cueillette",
      "address": "4701 Rue de Verdun",
      "distance_km": 4.88,
      "price_tier": "mid",
      "quality_rating": 3.8,
      "location_id": "auto-discovered",
      "latitude": 45.457933,
      "longitude": -73.571928,
      "tags": {
        "shop": "greengrocer",
        "amenity": "",
        "brand": ""
      }
    },
    {
      "store_id": "scan-6e5fa8b7db46",
      "name": "March\u00e9 Royal Plus",
      "chain": "March\u00e9 Royal Plus",
      "address": "274 Rue Saint-Zotique Est, Montr\u00e9al",
      "distance_km": 4.89,
      "price_tier": "mid",
      "quality_rating": 3.6,
      "location_id": "auto-discovered",
      "latitude": 45.534206,
      "longitude": -73.609505,
      "tags": {
        "shop": "supermarket",
        "amenity": "",
        "brand": ""
      }
    },
    {
      "store_id": "scan-09a2b91179a5",
      "name": "Fruiterie Anka",
      "chain": "Fruiterie Anka",
      "address": "2880 Avenue Barclay",
      "distance_km": 4.89,
      "price_tier": "mid",
      "quality_rating": 3.5,
      "location_id": "auto-discovered",
      "latitude": 45.509172,
      "longitude": -73.629097,
      "tags": {
        "shop": "greengrocer",
        "amenity": "",
        "brand": ""
      }
    },
    {
      "store_id": "scan-d86d02652cbd",
      "name": "Metro",
      "chain": "Metro",
      "address": "Address unavailable",
      "distance_km": 4.9,
      "price_tier": "mid",
      "quality_rating": 3.7,
      "location_id": "auto-discovered",
      "latitude": 45.52026,
      "longitude": -73.624372,
      "tags": {
        "shop": "supermarket",
        "amenity": "",
        "brand": "Metro"
      }
    },
    {
      "store_id": "scan-6d96863767eb",
      "name": "Le Tournesol",
      "chain": "Le Tournesol",
      "address": "1251 Rue Beaubien Est",
      "distance_km": 4.92,
      "price_tier": "mid",
      "quality_rating": 3.8,
      "location_id": "auto-discovered",
      "latitude": 45.539432,
      "longitude": -73.600252,
      "tags": {
        "shop": "health_food",
        "amenity": "",
        "brand": ""
      }
    },
    {
      "store_id": "scan-68c572fa92ad",
      "name": "March\u00e9 C&C",
      "chain": "March\u00e9 C&C",
      "address": "4829 Rue de Verdun",
      "distance_km": 4.96,
      "price_tier": "mid",
      "quality_rating": 3.6,
      "location_id": "auto-discovered",
      "latitude": 45.457223,
      "longitude": -73.571994,
      "tags": {
        "shop": "supermarket",
        "amenity": "",
        "brand": ""
      }
    },
    {
      "store_id": "scan-bc1a2ac199a4",
      "name": "Super March\u00e9 International",
      "chain": "Super March\u00e9 International",
      "address": "6655 Avenue de Darlington, Montr\u00e9al",
      "distance_km": 4.97,
      "price_tier": "mid",
      "quality_rating": 3.5,
      "location_id": "auto-discovered",
      "latitude": 45.509692,
      "longitude": -73.62999,
      "tags": {
        "shop": "supermarket",
        "amenity": "",
        "brand": ""
      }
    },
    {
      "store_id": "scan-5ff027ba7240",
      "name": "March\u00e9 Mokolo",
      "chain": "March\u00e9 Mokolo",
      "address": "4974 Chemin Queen Mary, Montr\u00e9al",
      "distance_km": 4.97,
      "price_tier": "mid",
      "quality_rating": 3.5,
      "location_id": "auto-discovered",
      "latitude": 45.485956,
      "longitude": -73.626911,
      "tags": {
        "shop": "supermarket",
        "amenity": "",
        "brand": ""
      }
    },
    {
      "store_id": "scan-c7c91c68da19",
      "name": "March\u00e9 Maman Jeanne",
      "chain": "March\u00e9 Maman Jeanne",
      "address": "4842 Rue de Verdun",
      "distance_km": 4.98,
      "price_tier": "mid",
      "quality_rating": 3.5,
      "location_id": "auto-discovered",
      "latitude": 45.457028,
      "longitude": -73.571744,
      "tags": {
        "shop": "grocery",
        "amenity": "",
        "brand": ""
      }
    },
    {
      "store_id": "scan-46856cee43d7",
      "name": "\u00c9picerie Gourmand",
      "chain": "\u00c9picerie Gourmand",
      "address": "6667 Rue Saint-Hubert",
      "distance_km": 4.99,
      "price_tier": "mid",
      "quality_rating": 3.5,
      "location_id": "auto-discovered",
      "latitude": 45.537529,
      "longitude": -73.605919,
      "tags": {
        "shop": "supermarket",
        "amenity": "",
        "brand": ""
      }
    },
    {
      "store_id": "scan-b609ed6fa35a",
      "name": "March\u00e9 Snowdon",
      "chain": "March\u00e9 Snowdon",
      "address": "4992 Chemin Queen Mary, Montr\u00e9al",
      "distance_km": 5.0,
      "price_tier": "mid",
      "quality_rating": 3.5,
      "location_id": "auto-discovered",
      "latitude": 45.485607,
      "longitude": -73.627238,
      "tags": {
        "shop": "supermarket",
        "amenity": "",
        "brand": ""
      }
    },
    {
      "store_id": "scan-11cdce49628e",
      "name": "Nature Sant\u00e9 2000",
      "chain": "Nature Sant\u00e9 2000",
      "address": "5006 Chemin Queen Mary, Montr\u00e9al",
      "distance_km": 5.02,
      "price_tier": "mid",
      "quality_rating": 3.5,
      "location_id": "auto-discovered",
      "latitude": 45.485411,
      "longitude": -73.627411,
      "tags": {
        "shop": "health_food",
        "amenity": "",
        "brand": ""
      }
    },
    {
      "store_id": "scan-9d375e883b30",
      "name": "One Stop Kosher Grocery",
      "chain": "One Stop Kosher Grocery",
      "address": "6735 Avenue de Darlington, Montr\u00e9al",
      "distance_km": 5.03,
      "price_tier": "mid",
      "quality_rating": 3.5,
      "location_id": "auto-discovered",
      "latitude": 45.510241,
      "longitude": -73.630705,
      "tags": {
        "shop": "grocery",
        "amenity": "",
        "brand": ""
      }
    },
    {
      "store_id": "scan-f468e5042614",
      "name": "March\u00e9 Lavaniya",
      "chain": "March\u00e9 Lavaniya",
      "address": "6145 Chemin de la C\u00f4te-des-Neiges, Montr\u00e9al",
      "distance_km": 5.03,
      "price_tier": "mid",
      "quality_rating": 3.5,
      "location_id": "auto-discovered",
      "latitude": 45.500864,
      "longitude": -73.631766,
      "tags": {
        "shop": "greengrocer",
        "amenity": "",
        "brand": ""
      }
    },
    {
      "store_id": "scan-b03c8b7252c2",
      "name": "IGA",
      "chain": "IGA",
      "address": "Address unavailable",
      "distance_km": 5.04,
      "price_tier": "mid",
      "quality_rating": 3.8,
      "location_id": "auto-discovered",
      "latitude": 45.538167,
      "longitude": -73.605681,
      "tags": {
        "shop": "supermarket",
        "amenity": "",
        "brand": "IGA"
      }
    },
    {
      "store_id": "scan-1e64aa9d04cf",
      "name": "March\u00e9 Tradition",
      "chain": "IGA",
      "address": "2340 Boulevard Rosemont",
      "distance_km": 5.05,
      "price_tier": "mid",
      "quality_rating": 3.7,
      "location_id": "auto-discovered",
      "latitude": 45.544897,
      "longitude": -73.587347,
      "tags": {
        "shop": "supermarket",
        "amenity": "",
        "brand": "IGA"
      }
    },
    {
      "store_id": "scan-a143d958bb4b",
      "name": "Labriut Bio",
      "chain": "Labriut Bio",
      "address": "6781 Avenue de Darlington, Montr\u00e9al",
      "distance_km": 5.05,
      "price_tier": "mid",
      "quality_rating": 3.5,
      "location_id": "auto-discovered",
      "latitude": 45.510382,
      "longitude": -73.630966,
      "tags": {
        "shop": "health_food",
        "amenity": "",
        "brand": ""
      }
    },
    {
      "store_id": "scan-266a2168f553",
      "name": "L'Intermarch\u00e9 Beaubien",
      "chain": "Intermarch\u00e9",
      "address": "1451 Rue Beaubien Est, Montr\u00e9al",
      "distance_km": 5.05,
      "price_tier": "mid",
      "quality_rating": 3.8,
      "location_id": "auto-discovered",
      "latitude": 45.541555,
      "longitude": -73.598353,
      "tags": {
        "shop": "supermarket",
        "amenity": "",
        "brand": "Intermarch\u00e9"
      }
    },
    {
      "store_id": "scan-c6843d5b5675",
      "name": "March\u00e9 Olgun",
      "chain": "March\u00e9 Olgun",
      "address": "6791 Avenue de Darlington, Montr\u00e9al",
      "distance_km": 5.06,
      "price_tier": "mid",
      "quality_rating": 3.5,
      "location_id": "auto-discovered",
      "latitude": 45.510425,
      "longitude": -73.63105,
      "tags": {
        "shop": "grocery",
        "amenity": "",
        "brand": ""
      }
    },
    {
      "store_id": "scan-e156d9cdde55",
      "name": "Afroleck",
      "chain": "Afroleck",
      "address": "5164 Chemin Queen Mary, Montr\u00e9al",
      "distance_km": 5.07,
      "price_tier": "mid",
      "quality_rating": 3.5,
      "location_id": "auto-discovered",
      "latitude": 45.484949,
      "longitude": -73.627799,
      "tags": {
        "shop": "grocery",
        "amenity": "",
        "brand": ""
      }
    },
    {
      "store_id": "scan-86b26bb1dbd6",
      "name": "Naturiste",
      "chain": "Naturiste",
      "address": "825 Rue Saint-Charles Ouest, Longueuil",
      "distance_km": 5.07,
      "price_tier": "mid",
      "quality_rating": 3.5,
      "location_id": "auto-discovered",
      "latitude": 45.52891,
      "longitude": -73.51514,
      "tags": {
        "shop": "supermarket",
        "amenity": "",
        "brand": ""
      }
    },
    {
      "store_id": "scan-dc589be4c6a5",
      "name": "Maxi",
      "chain": "Maxi",
      "address": "6000 Rue Laurendeau, Montr\u00e9al",
      "distance_km": 5.08,
      "price_tier": "budget",
      "quality_rating": 3.8,
      "location_id": "auto-discovered",
      "latitude": 45.458354,
      "longitude": -73.588076,
      "tags": {
        "shop": "supermarket",
        "amenity": "",
        "brand": "Maxi"
      }
    },
    {
      "store_id": "scan-c9e75dda376c",
      "name": "Milano",
      "chain": "Milano",
      "address": "6896 Boulevard Saint-Laurent",
      "distance_km": 5.08,
      "price_tier": "mid",
      "quality_rating": 3.6,
      "location_id": "auto-discovered",
      "latitude": 45.532929,
      "longitude": -73.614815,
      "tags": {
        "shop": "supermarket",
        "amenity": "",
        "brand": ""
      }
    },
    {
      "store_id": "scan-9f6824362a4d",
      "name": "March\u00e9 Le Kasbah",
      "chain": "March\u00e9 Le Kasbah",
      "address": "5178 Chemin Queen Mary, Montr\u00e9al",
      "distance_km": 5.09,
      "price_tier": "mid",
      "quality_rating": 3.5,
      "location_id": "auto-discovered",
      "latitude": 45.484672,
      "longitude": -73.627948,
      "tags": {
        "shop": "supermarket",
        "amenity": "",
        "brand": ""
      }
    },
    {
      "store_id": "scan-f59fec23f6da",
      "name": "Vrac & bocaux",
      "chain": "Vrac & bocaux",
      "address": "6698 Avenue Christophe-Colomb, Montr\u00e9al",
      "distance_km": 5.1,
      "price_tier": "mid",
      "quality_rating": 3.6,
      "location_id": "auto-discovered",
      "latitude": 45.539218,
      "longitude": -73.604918,
      "tags": {
        "shop": "supermarket",
        "amenity": "",
        "brand": ""
      }
    },
    {
      "store_id": "scan-168a73140098",
      "name": "\u00c9picerie Ebenezer",
      "chain": "\u00c9picerie Ebenezer",
      "address": "2818 Rue Masson",
      "distance_km": 5.1,
      "price_tier": "mid",
      "quality_rating": 3.8,
      "location_id": "auto-discovered",
      "latitude": 45.54721,
      "longitude": -73.575266,
      "tags": {
        "shop": "greengrocer",
        "amenity": "",
        "brand": ""
      }
    },
    {
      "store_id": "scan-f76a880f88e9",
      "name": "L'\u00e9picentre",
      "chain": "L'\u00e9picentre",
      "address": "6746 Rue Saint-Hubert",
      "distance_km": 5.1,
      "price_tier": "mid",
      "quality_rating": 3.5,
      "location_id": "auto-discovered",
      "latitude": 45.537959,
      "longitude": -73.607393,
      "tags": {
        "shop": "health_food",
        "amenity": "",
        "brand": ""
      }
    },
    {
      "store_id": "scan-d87614fcad33",
      "name": "March\u00e9 Jolee",
      "chain": "March\u00e9 Jolee",
      "address": "5493 Avenue Victoria, Montr\u00e9al",
      "distance_km": 5.11,
      "price_tier": "mid",
      "quality_rating": 3.5,
      "location_id": "auto-discovered",
      "latitude": 45.491736,
      "longitude": -73.631317,
      "tags": {
        "shop": "supermarket",
        "amenity": "",
        "brand": ""
      }
    },
    {
      "store_id": "scan-bac514147875",
      "name": "Terre \u00e0 soi",
      "chain": "Terre \u00e0 soi",
      "address": "3580 Rue Ontario Est",
      "distance_km": 5.12,
      "price_tier": "mid",
      "quality_rating": 3.6,
      "location_id": "auto-discovered",
      "latitude": 45.54499,
      "longitude": -73.544724,
      "tags": {
        "shop": "supermarket",
        "amenity": "",
        "brand": ""
      }
    },
    {
      "store_id": "scan-5a501927f2cb",
      "name": "IGA",
      "chain": "IGA",
      "address": "825 Rue Saint-Charles Ouest, Longueuil",
      "distance_km": 5.13,
      "price_tier": "mid",
      "quality_rating": 3.8,
      "location_id": "auto-discovered",
      "latitude": 45.529166,
      "longitude": -73.514456,
      "tags": {
        "shop": "supermarket",
        "amenity": "",
        "brand": "IGA"
      }
    },
    {
      "store_id": "scan-86305ee5f479",
      "name": "Metro",
      "chain": "Metro",
      "address": "5201 Chemin Queen Mary",
      "distance_km": 5.15,
      "price_tier": "mid",
      "quality_rating": 3.8,
      "location_id": "auto-discovered",
      "latitude": 45.484681,
      "longitude": -73.62868,
      "tags": {
        "shop": "supermarket",
        "amenity": "",
        "brand": "Metro"
      }
    },
    {
      "store_id": "scan-cef5d952347e",
      "name": "Esposito",
      "chain": "Esposito",
      "address": "Address unavailable",
      "distance_km": 5.16,
      "price_tier": "mid",
      "quality_rating": 3.5,
      "location_id": "auto-discovered",
      "latitude": 45.47062,
      "longitude": -73.616499,
      "tags": {
        "shop": "supermarket",
        "amenity": "",
        "brand": ""
      }
    },
    {
      "store_id": "scan-481c0157f977",
      "name": "Fruiterie Mont-Carmel",
      "chain": "Fruiterie Mont-Carmel",
      "address": "5251 Chemin Queen Mary, Montr\u00e9al",
      "distance_km": 5.17,
      "price_tier": "mid",
      "quality_rating": 3.6,
      "location_id": "auto-discovered",
      "latitude": 45.484345,
      "longitude": -73.628864,
      "tags": {
        "shop": "supermarket",
        "amenity": "",
        "brand": ""
      }
    },
    {
      "store_id": "scan-6baf982e4e14",
      "name": "\u00c9picerie de Saison",
      "chain": "\u00c9picerie de Saison",
      "address": "2884 Rue Masson",
      "distance_km": 5.17,
      "price_tier": "mid",
      "quality_rating": 3.8,
      "location_id": "auto-discovered",
      "latitude": 45.547884,
      "longitude": -73.574864,
      "tags": {
        "shop": "greengrocer",
        "amenity": "",
        "brand": ""
      }
    },
    {
      "store_id": "scan-6b963595e77e",
      "name": "March\u00e9 Kim-Po",
      "chain": "March\u00e9 Kim-Po",
      "address": "5505 Avenue Victoria, Montr\u00e9al",
      "distance_km": 5.17,
      "price_tier": "mid",
      "quality_rating": 3.5,
      "location_id": "auto-discovered",
      "latitude": 45.492124,
      "longitude": -73.632149,
      "tags": {
        "shop": "supermarket",
        "amenity": "",
        "brand": ""
      }
    },
    {
      "store_id": "scan-a8813d16f5ec",
      "name": "Aliments Merci",
      "chain": "Aliments Merci",
      "address": "3623 Ontario Est, Montr\u00e9al",
      "distance_km": 5.18,
      "price_tier": "mid",
      "quality_rating": 3.8,
      "location_id": "auto-discovered",
      "latitude": 45.545499,
      "longitude": -73.544762,
      "tags": {
        "shop": "supermarket",
        "amenity": "",
        "brand": ""
      }
    },
    {
      "store_id": "scan-158d2e8e7c50",
      "name": "Provigo",
      "chain": "Provigo",
      "address": "5595 Avenue de Monkland, Montr\u00e9al",
      "distance_km": 5.19,
      "price_tier": "mid",
      "quality_rating": 3.7,
      "location_id": "auto-discovered",
      "latitude": 45.475994,
      "longitude": -73.622906,
      "tags": {
        "shop": "supermarket",
        "amenity": "",
        "brand": "Provigo"
      }
    },
    {
      "store_id": "scan-c63fbec89683",
      "name": "Plaza America Latina",
      "chain": "Plaza America Latina",
      "address": "5131 Rue Wellington",
      "distance_km": 5.19,
      "price_tier": "mid",
      "quality_rating": 3.5,
      "location_id": "auto-discovered",
      "latitude": 45.454998,
      "longitude": -73.567854,
      "tags": {
        "shop": "grocery",
        "amenity": "",
        "brand": ""
      }
    },
    {
      "store_id": "scan-d8944b86e7b0",
      "name": "Supermarch\u00e9 Mundial",
      "chain": "Supermarch\u00e9 Mundial",
      "address": "Address unavailable",
      "distance_km": 5.19,
      "price_tier": "mid",
      "quality_rating": 3.5,
      "location_id": "auto-discovered",
      "latitude": 45.53347,
      "longitude": -73.616045,
      "tags": {
        "shop": "supermarket",
        "amenity": "",
        "brand": ""
      }
    },
    {
      "store_id": "scan-4a66b30b9343",
      "name": "IGA",
      "chain": "IGA",
      "address": "5144 Rue Bannantyne, Montr\u00e9al",
      "distance_km": 5.2,
      "price_tier": "mid",
      "quality_rating": 3.8,
      "location_id": "auto-discovered",
      "latitude": 45.455326,
      "longitude": -73.576082,
      "tags": {
        "shop": "supermarket",
        "amenity": "",
        "brand": "IGA"
      }
    },
    {
      "store_id": "scan-72a1bb65999c",
      "name": "Fra\u00eechement Bon",
      "chain": "Fra\u00eechement Bon",
      "address": "2901 Rue Masson, Montr\u00e9al",
      "distance_km": 5.21,
      "price_tier": "mid",
      "quality_rating": 3.8,
      "location_id": "auto-discovered",
      "latitude": 45.548232,
      "longitude": -73.574952,
      "tags": {
        "shop": "greengrocer",
        "amenity": "",
        "brand": ""
      }
    },
    {
      "store_id": "scan-8446be9bae38",
      "name": "March\u00e9 tharsini",
      "chain": "March\u00e9 tharsini",
      "address": "5670 Avenue Victoria, Montr\u00e9al",
      "distance_km": 5.21,
      "price_tier": "mid",
      "quality_rating": 3.5,
      "location_id": "auto-discovered",
      "latitude": 45.491962,
      "longitude": -73.632651,
      "tags": {
        "shop": "supermarket",
        "amenity": "",
        "brand": ""
      }
    },
    {
      "store_id": "scan-b87f206503d1",
      "name": "Meezan",
      "chain": "Meezan",
      "address": "908 Rue Jean-Talon Ouest",
      "distance_km": 5.21,
      "price_tier": "mid",
      "quality_rating": 3.5,
      "location_id": "auto-discovered",
      "latitude": 45.52531,
      "longitude": -73.625014,
      "tags": {
        "shop": "",
        "amenity": "marketplace",
        "brand": ""
      }
    },
    {
      "store_id": "scan-67a58b7b8f7a",
      "name": "Branche d'Olivier",
      "chain": "Branche d'Olivier",
      "address": "5768 Rue Sherbrooke Ouest, Montr\u00e9al",
      "distance_km": 5.21,
      "price_tier": "mid",
      "quality_rating": 3.8,
      "location_id": "auto-discovered",
      "latitude": 45.469983,
      "longitude": -73.616572,
      "tags": {
        "shop": "supermarket",
        "amenity": "",
        "brand": ""
      }
    },
    {
      "store_id": "scan-ffa0542652f1",
      "name": "Les th\u00e9s Camelia Sinensis",
      "chain": "Les th\u00e9s Camelia Sinensis",
      "address": "Address unavailable",
      "distance_km": 5.22,
      "price_tier": "mid",
      "quality_rating": 3.6,
      "location_id": "auto-discovered",
      "latitude": 45.534747,
      "longitude": -73.61492,
      "tags": {
        "shop": "greengrocer",
        "amenity": "",
        "brand": ""
      }
    },
    {
      "store_id": "scan-38aab2a8952d",
      "name": "IGA",
      "chain": "IGA",
      "address": "Address unavailable",
      "distance_km": 5.22,
      "price_tier": "mid",
      "quality_rating": 3.8,
      "location_id": "auto-discovered",
      "latitude": 45.49361,
      "longitude": -73.501327,
      "tags": {
        "shop": "supermarket",
        "amenity": "",
        "brand": "IGA"
      }
    },
    {
      "store_id": "scan-32f743d72524",
      "name": "IGA",
      "chain": "IGA",
      "address": "5501 Chemin de la C\u00f4te-Saint-Luc, Montr\u00e9al",
      "distance_km": 5.22,
      "price_tier": "mid",
      "quality_rating": 3.8,
      "location_id": "auto-discovered",
      "latitude": 45.4791,
      "longitude": -73.626064,
      "tags": {
        "shop": "supermarket",
        "amenity": "",
        "brand": "IGA"
      }
    },
    {
      "store_id": "scan-381329f6f52b",
      "name": "Fruiterie Monkland",
      "chain": "Fruiterie Monkland",
      "address": "5605 Avenue de Monkland, Montr\u00e9al",
      "distance_km": 5.23,
      "price_tier": "mid",
      "quality_rating": 3.5,
      "location_id": "auto-discovered",
      "latitude": 45.475623,
      "longitude": -73.623065,
      "tags": {
        "shop": "greengrocer",
        "amenity": "",
        "brand": ""
      }
    },
    {
      "store_id": "scan-b19420176e74",
      "name": "\u00c9picerie caf\u00e9 Marco Rosa",
      "chain": "\u00c9picerie caf\u00e9 Marco Rosa",
      "address": "3668 Rue Ontario Est, Montreal",
      "distance_km": 5.23,
      "price_tier": "mid",
      "quality_rating": 3.5,
      "location_id": "auto-discovered",
      "latitude": 45.545874,
      "longitude": -73.544078,
      "tags": {
        "shop": "grocery",
        "amenity": "",
        "brand": ""
      }
    },
    {
      "store_id": "scan-b294a8ae1e86",
      "name": "\u00c9picerie Les Emplettes",
      "chain": "\u00c9picerie Les Emplettes",
      "address": "1960 Rue Beaubien Est, Montr\u00e9al",
      "distance_km": 5.23,
      "price_tier": "mid",
      "quality_rating": 3.8,
      "location_id": "auto-discovered",
      "latitude": 45.544483,
      "longitude": -73.595225,
      "tags": {
        "shop": "grocery",
        "amenity": "",
        "brand": ""
      }
    },
    {
      "store_id": "scan-272dba191a52",
      "name": "March\u00e9 Bio NDG",
      "chain": "March\u00e9 Bio NDG",
      "address": "5785 Rue Sherbrooke Ouest, Montr\u00e9al",
      "distance_km": 5.24,
      "price_tier": "mid",
      "quality_rating": 3.6,
      "location_id": "auto-discovered",
      "latitude": 45.470083,
      "longitude": -73.617179,
      "tags": {
        "shop": "health_food",
        "amenity": "",
        "brand": ""
      }
    },
    {
      "store_id": "scan-39f47d26ed98",
      "name": "Teva",
      "chain": "Teva",
      "address": "5143 Boulevard D\u00e9carie, Montr\u00e9al",
      "distance_km": 5.24,
      "price_tier": "mid",
      "quality_rating": 3.5,
      "location_id": "auto-discovered",
      "latitude": 45.484288,
      "longitude": -73.629743,
      "tags": {
        "shop": "supermarket",
        "amenity": "",
        "brand": ""
      }
    },
    {
      "store_id": "scan-2a45c6ce7dab",
      "name": "March\u00e9 Bakar",
      "chain": "March\u00e9 Bakar",
      "address": "690 Rue Jean-Talon Ouest",
      "distance_km": 5.24,
      "price_tier": "mid",
      "quality_rating": 3.5,
      "location_id": "auto-discovered",
      "latitude": 45.527111,
      "longitude": -73.623988,
      "tags": {
        "shop": "supermarket",
        "amenity": "",
        "brand": ""
      }
    },
    {
      "store_id": "scan-06679883a567",
      "name": "Rachelle-B\u00e9ry",
      "chain": "Rachelle-B\u00e9ry",
      "address": "Address unavailable",
      "distance_km": 5.24,
      "price_tier": "mid",
      "quality_rating": 3.5,
      "location_id": "auto-discovered",
      "latitude": 45.533946,
      "longitude": -73.616371,
      "tags": {
        "shop": "supermarket",
        "amenity": "",
        "brand": ""
      }
    },
    {
      "store_id": "scan-bbb7a1e27c60",
      "name": "March\u00e9 d'Afrique",
      "chain": "March\u00e9 d'Afrique",
      "address": "Address unavailable",
      "distance_km": 5.24,
      "price_tier": "mid",
      "quality_rating": 3.5,
      "location_id": "auto-discovered",
      "latitude": 45.525689,
      "longitude": -73.625231,
      "tags": {
        "shop": "",
        "amenity": "marketplace",
        "brand": ""
      }
    },
    {
      "store_id": "scan-28c1072fd560",
      "name": "March\u00e9 Andes",
      "chain": "March\u00e9 Andes",
      "address": "436 Rue B\u00e9langer",
      "distance_km": 5.26,
      "price_tier": "mid",
      "quality_rating": 3.6,
      "location_id": "auto-discovered",
      "latitude": 45.537569,
      "longitude": -73.611303,
      "tags": {
        "shop": "supermarket",
        "amenity": "",
        "brand": ""
      }
    },
    {
      "store_id": "scan-7e0bd74f8491",
      "name": "March\u00e9 des saveurs",
      "chain": "March\u00e9 des saveurs",
      "address": "280 Place du March\u00e9-du-Nord",
      "distance_km": 5.27,
      "price_tier": "mid",
      "quality_rating": 3.6,
      "location_id": "auto-discovered",
      "latitude": 45.536102,
      "longitude": -73.613872,
      "tags": {
        "shop": "supermarket",
        "amenity": "",
        "brand": ""
      }
    },
    {
      "store_id": "scan-1800182ca865",
      "name": "Rocky Montana",
      "chain": "Rocky Montana",
      "address": "5340 Chemin Queen Mary, Montr\u00e9al",
      "distance_km": 5.29,
      "price_tier": "mid",
      "quality_rating": 3.5,
      "location_id": "auto-discovered",
      "latitude": 45.482787,
      "longitude": -73.629573,
      "tags": {
        "shop": "greengrocer",
        "amenity": "",
        "brand": ""
      }
    },
    {
      "store_id": "scan-e8b83456165e",
      "name": "March\u00e9 Alexandia",
      "chain": "March\u00e9 Alexandia",
      "address": "3596 Avenue Barclay, Montr\u00e9al",
      "distance_km": 5.3,
      "price_tier": "mid",
      "quality_rating": 3.5,
      "location_id": "auto-discovered",
      "latitude": 45.502721,
      "longitude": -73.635309,
      "tags": {
        "shop": "grocery",
        "amenity": "",
        "brand": ""
      }
    },
    {
      "store_id": "scan-94d22836b5fe",
      "name": "Hannah's Hut",
      "chain": "Hannah's Hut",
      "address": "5343 Chemin Queen Mary, Montr\u00e9al",
      "distance_km": 5.3,
      "price_tier": "mid",
      "quality_rating": 3.5,
      "location_id": "auto-discovered",
      "latitude": 45.483089,
      "longitude": -73.629901,
      "tags": {
        "shop": "supermarket",
        "amenity": "",
        "brand": ""
      }
    },
    {
      "store_id": "scan-7b1312daa086",
      "name": "La Pomme d'Api",
      "chain": "La Pomme d'Api",
      "address": "2599 Boulevard Rosemont",
      "distance_km": 5.32,
      "price_tier": "mid",
      "quality_rating": 3.8,
      "location_id": "auto-discovered",
      "latitude": 45.547844,
      "longitude": -73.585352,
      "tags": {
        "shop": "greengrocer",
        "amenity": "",
        "brand": ""
      }
    },
    {
      "store_id": "scan-100954c869a3",
      "name": "Birri",
      "chain": "Birri",
      "address": "7075-A Avenue Casgrain, Montr\u00e9al",
      "distance_km": 5.33,
      "price_tier": "mid",
      "quality_rating": 3.6,
      "location_id": "auto-discovered",
      "latitude": 45.53559,
      "longitude": -73.615611,
      "tags": {
        "shop": "garden_centre;greengrocer",
        "amenity": "",
        "brand": ""
      }
    },
    {
      "store_id": "scan-ba206d8061ca",
      "name": "Fruits du jour",
      "chain": "Fruits du jour",
      "address": "3765 Rue Ontario Est",
      "distance_km": 5.35,
      "price_tier": "mid",
      "quality_rating": 3.6,
      "location_id": "auto-discovered",
      "latitude": 45.546898,
      "longitude": -73.543914,
      "tags": {
        "shop": "greengrocer",
        "amenity": "",
        "brand": ""
      }
    },
    {
      "store_id": "scan-35c6cc4f884e",
      "name": "Qualit\u00e9 Cach\u00e8re",
      "chain": "Qualit\u00e9 Cach\u00e8re",
      "address": "5855-5865 Avenue Victoria, Montr\u00e9al",
      "distance_km": 5.35,
      "price_tier": "mid",
      "quality_rating": 3.5,
      "location_id": "auto-discovered",
      "latitude": 45.493344,
      "longitude": -73.634895,
      "tags": {
        "shop": "supermarket",
        "amenity": "",
        "brand": ""
      }
    },
    {
      "store_id": "scan-2c4a68eb0f16",
      "name": "Valmont",
      "chain": "Valmont",
      "address": "2625 Boulevard Rosemont",
      "distance_km": 5.36,
      "price_tier": "mid",
      "quality_rating": 3.6,
      "location_id": "auto-discovered",
      "latitude": 45.548238,
      "longitude": -73.584992,
      "tags": {
        "shop": "supermarket",
        "amenity": "",
        "brand": ""
      }
    },
    {
      "store_id": "scan-25b2508186bc",
      "name": "Sabor Latino",
      "chain": "Sabor Latino",
      "address": "6955 Rue Saint-Hubert, Montr\u00e9al",
      "distance_km": 5.37,
      "price_tier": "mid",
      "quality_rating": 3.6,
      "location_id": "auto-discovered",
      "latitude": 45.539538,
      "longitude": -73.610035,
      "tags": {
        "shop": "supermarket",
        "amenity": "",
        "brand": ""
      }
    },
    {
      "store_id": "scan-0462f1b36d91",
      "name": "Kim Phat",
      "chain": "Kim Phat",
      "address": "3588 Rue Goyer",
      "distance_km": 5.38,
      "price_tier": "mid",
      "quality_rating": 3.5,
      "location_id": "auto-discovered",
      "latitude": 45.50322,
      "longitude": -73.63632,
      "tags": {
        "shop": "supermarket",
        "amenity": "",
        "brand": ""
      }
    },
    {
      "store_id": "scan-f7ed85d0bc2c",
      "name": "March\u00e9 Desh Bazas",
      "chain": "March\u00e9 Desh Bazas",
      "address": "5897 Avenue Victoria, Montr\u00e9al",
      "distance_km": 5.38,
      "price_tier": "mid",
      "quality_rating": 3.5,
      "location_id": "auto-discovered",
      "latitude": 45.49354,
      "longitude": -73.63539,
      "tags": {
        "shop": "supermarket",
        "amenity": "",
        "brand": ""
      }
    },
    {
      "store_id": "scan-4355945eed60",
      "name": "Petit March\u00e9 V\u00e9g\u00e9",
      "chain": "Petit March\u00e9 V\u00e9g\u00e9",
      "address": "7057 Rue Saint-Denis, Montr\u00e9al",
      "distance_km": 5.39,
      "price_tier": "mid",
      "quality_rating": 3.6,
      "location_id": "auto-discovered",
      "latitude": 45.537944,
      "longitude": -73.613301,
      "tags": {
        "shop": "greengrocer",
        "amenity": "restaurant",
        "brand": ""
      }
    },
    {
      "store_id": "scan-c22c6ab16178",
      "name": "Fruiterie Royale Gala",
      "chain": "Fruiterie Royale Gala",
      "address": "2213 Rue Beaubien Est, Montr\u00e9al",
      "distance_km": 5.39,
      "price_tier": "mid",
      "quality_rating": 3.7,
      "location_id": "auto-discovered",
      "latitude": 45.546465,
      "longitude": -73.593919,
      "tags": {
        "shop": "greengrocer",
        "amenity": "",
        "brand": ""
      }
    },